[{"id":153955,"name":"Al-Dawha","state_id":5118,"state_code":"BTH","country_id":169,"country_code":"PS","latitude":"31.69773990","longitude":"35.14595450"},{"id":153957,"name":"al-Khader","state_id":5118,"state_code":"BTH","country_id":169,"country_code":"PS","latitude":"31.69484540","longitude":"35.15014530"},{"id":153960,"name":"al-Ubeidiya","state_id":5118,"state_code":"BTH","country_id":169,"country_code":"PS","latitude":"31.72386430","longitude":"35.27122130"},{"id":153950,"name":"Battir","state_id":5118,"state_code":"BTH","country_id":169,"country_code":"PS","latitude":"31.72821540","longitude":"35.11743230"},{"id":153951,"name":"Beit Fajjar","state_id":5118,"state_code":"BTH","country_id":169,"country_code":"PS","latitude":"31.62166990","longitude":"35.13430330"},{"id":153952,"name":"Beit Jala","state_id":5118,"state_code":"BTH","country_id":169,"country_code":"PS","latitude":"31.71603340","longitude":"35.16654930"},{"id":153953,"name":"Beit Sahour","state_id":5118,"state_code":"BTH","country_id":169,"country_code":"PS","latitude":"31.69787040","longitude":"35.20793030"},{"id":153954,"name":"Bethlehem","state_id":5118,"state_code":"BTH","country_id":169,"country_code":"PS","latitude":"31.70541650","longitude":"35.18184280"},{"id":153956,"name":"Husan","state_id":5118,"state_code":"BTH","country_id":169,"country_code":"PS","latitude":"31.70846040","longitude":"35.11282530"},{"id":153958,"name":"Nahalin","state_id":5118,"state_code":"BTH","country_id":169,"country_code":"PS","latitude":"31.68564240","longitude":"35.09976230"},{"id":153959,"name":"Tuqu'","state_id":5118,"state_code":"BTH","country_id":169,"country_code":"PS","latitude":"31.63912740","longitude":"35.19189030"},{"id":153961,"name":"Za'atara","state_id":5118,"state_code":"BTH","country_id":169,"country_code":"PS","latitude":"31.67447840","longitude":"35.23449130"},{"id":153963,"name":"az-Zawayda","state_id":5119,"state_code":"DEB","country_id":169,"country_code":"PS","latitude":"31.42979750","longitude":"34.35014230"},{"id":153962,"name":"Deir al-Balah","state_id":5119,"state_code":"DEB","country_id":169,"country_code":"PS","latitude":"31.41717350","longitude":"34.33033130"},{"id":153965,"name":"Al-Zahra","state_id":5120,"state_code":"GZA","country_id":169,"country_code":"PS","latitude":"31.47246750","longitude":"34.37782930"},{"id":153964,"name":"Gaza City","state_id":5120,"state_code":"GZA","country_id":169,"country_code":"PS","latitude":"31.50172950","longitude":"34.44624480"},{"id":153970,"name":"ad-Dhahiriya","state_id":5121,"state_code":"HBN","country_id":169,"country_code":"PS","latitude":"31.40967250","longitude":"34.95490830"},{"id":153980,"name":"as-Samu","state_id":5121,"state_code":"HBN","country_id":169,"country_code":"PS","latitude":"31.39864450","longitude":"35.04468830"},{"id":153971,"name":"Bani Na'im","state_id":5121,"state_code":"HBN","country_id":169,"country_code":"PS","latitude":"31.51490050","longitude":"35.14474030"},{"id":153972,"name":"Beit 'Awwa","state_id":5121,"state_code":"HBN","country_id":169,"country_code":"PS","latitude":"31.50675240","longitude":"34.92956130"},{"id":153973,"name":"Beit Ula","state_id":5121,"state_code":"HBN","country_id":169,"country_code":"PS","latitude":"31.59845640","longitude":"35.00577530"},{"id":153974,"name":"Beit Ummar","state_id":5121,"state_code":"HBN","country_id":169,"country_code":"PS","latitude":"31.62284640","longitude":"35.08159930"},{"id":153975,"name":"Deir Sammit","state_id":5121,"state_code":"HBN","country_id":169,"country_code":"PS","latitude":"31.51996340","longitude":"34.95207130"},{"id":153966,"name":"Dura","state_id":5121,"state_code":"HBN","country_id":169,"country_code":"PS","latitude":"31.50512740","longitude":"35.00692730"},{"id":153967,"name":"Halhul","state_id":5121,"state_code":"HBN","country_id":169,"country_code":"PS","latitude":"31.57992420","longitude":"35.07930450"},{"id":153968,"name":"Hebron","state_id":5121,"state_code":"HBN","country_id":169,"country_code":"PS","latitude":"31.53260350","longitude":"35.07922630"},{"id":153976,"name":"Idhna","state_id":5121,"state_code":"HBN","country_id":169,"country_code":"PS","latitude":"31.55728640","longitude":"34.95864330"},{"id":153977,"name":"Kharas","state_id":5121,"state_code":"HBN","country_id":169,"country_code":"PS","latitude":"31.61225240","longitude":"35.02365130"},{"id":153978,"name":"Nuba","state_id":5121,"state_code":"HBN","country_id":169,"country_code":"PS","latitude":"31.61382080","longitude":"35.00579200"},{"id":153979,"name":"Sa'ir","state_id":5121,"state_code":"HBN","country_id":169,"country_code":"PS","latitude":"31.58248950","longitude":"35.12317630"},{"id":153981,"name":"Surif","state_id":5121,"state_code":"HBN","country_id":169,"country_code":"PS","latitude":"31.64958640","longitude":"35.04411230"},{"id":153983,"name":"Taffuh","state_id":5121,"state_code":"HBN","country_id":169,"country_code":"PS","latitude":"31.53848250","longitude":"35.03037330"},{"id":153982,"name":"Tarqumiya","state_id":5121,"state_code":"HBN","country_id":169,"country_code":"PS","latitude":"31.57736440","longitude":"34.99357430"},{"id":153969,"name":"Yatta","state_id":5121,"state_code":"HBN","country_id":169,"country_code":"PS","latitude":"31.44418450","longitude":"35.06950530"},{"id":153986,"name":"Ajjah","state_id":5122,"state_code":"JEN","country_id":169,"country_code":"PS","latitude":"32.36001710","longitude":"35.17739430"},{"id":153997,"name":"al-Yamun","state_id":5122,"state_code":"JEN","country_id":169,"country_code":"PS","latitude":"32.48671110","longitude":"35.21299230"},{"id":153987,"name":"Arrabah","state_id":5122,"state_code":"JEN","country_id":169,"country_code":"PS","latitude":"32.40331010","longitude":"35.18531430"},{"id":153988,"name":"Burqin","state_id":5122,"state_code":"JEN","country_id":169,"country_code":"PS","latitude":"32.45616900","longitude":"35.24108830"},{"id":153989,"name":"Deir Abu Da'if","state_id":5122,"state_code":"JEN","country_id":169,"country_code":"PS","latitude":"32.45609510","longitude":"35.34432230"},{"id":153990,"name":"Jaba","state_id":5122,"state_code":"JEN","country_id":169,"country_code":"PS","latitude":"32.32506110","longitude":"35.19956430"},{"id":153984,"name":"Jenin","state_id":5122,"state_code":"JEN","country_id":169,"country_code":"PS","latitude":"32.45728400","longitude":"35.28161440"},{"id":153991,"name":"Kafr Dan","state_id":5122,"state_code":"JEN","country_id":169,"country_code":"PS","latitude":"32.47801110","longitude":"35.23318730"},{"id":153992,"name":"Kafr Rai","state_id":5122,"state_code":"JEN","country_id":169,"country_code":"PS","latitude":"32.37345210","longitude":"35.13493630"},{"id":153993,"name":"Meithalun","state_id":5122,"state_code":"JEN","country_id":169,"country_code":"PS","latitude":"32.34924410","longitude":"35.25088430"},{"id":153985,"name":"Qabatiya","state_id":5122,"state_code":"JEN","country_id":169,"country_code":"PS","latitude":"32.40961710","longitude":"35.25949330"},{"id":153995,"name":"Silat ad-Dhahr","state_id":5122,"state_code":"JEN","country_id":169,"country_code":"PS","latitude":"32.31753210","longitude":"35.16663230"},{"id":153994,"name":"Silat al-Harithiya","state_id":5122,"state_code":"JEN","country_id":169,"country_code":"PS","latitude":"32.50979700","longitude":"35.20684730"},{"id":153996,"name":"Ya'bad","state_id":5122,"state_code":"JEN","country_id":169,"country_code":"PS","latitude":"32.44686800","longitude":"35.14667430"},{"id":153998,"name":"Zababdeh","state_id":5122,"state_code":"JEN","country_id":169,"country_code":"PS","latitude":"32.38523610","longitude":"35.30287930"},{"id":154000,"name":"al-Auja","state_id":5123,"state_code":"JRH","country_id":169,"country_code":"PS","latitude":"31.94809930","longitude":"35.45056430"},{"id":154001,"name":"al-Jiftlik","state_id":5123,"state_code":"JRH","country_id":169,"country_code":"PS","latitude":"32.14143230","longitude":"35.44660250"},{"id":153999,"name":"Jericho","state_id":5123,"state_code":"JRH","country_id":169,"country_code":"PS","latitude":"31.85950700","longitude":"35.44390820"},{"id":154003,"name":"Abu Dis","state_id":5124,"state_code":"JEM","country_id":169,"country_code":"PS","latitude":"31.76361630","longitude":"35.23712230"},{"id":154004,"name":"Ar-Ram","state_id":5124,"state_code":"JEM","country_id":169,"country_code":"PS","latitude":"31.84928630","longitude":"35.21288930"},{"id":154006,"name":"Beit 'Anan","state_id":5124,"state_code":"JEM","country_id":169,"country_code":"PS","latitude":"31.85109930","longitude":"35.09111930"},{"id":154005,"name":"Biddu","state_id":5124,"state_code":"JEM","country_id":169,"country_code":"PS","latitude":"31.83445820","longitude":"35.07441730"},{"id":154007,"name":"Bir Nabala","state_id":5124,"state_code":"JEM","country_id":169,"country_code":"PS","latitude":"31.85121630","longitude":"35.18023530"},{"id":154002,"name":"East Jerusalem","state_id":5124,"state_code":"JEM","country_id":169,"country_code":"PS","latitude":"31.79650430","longitude":"35.01054340"},{"id":154008,"name":"Hizma","state_id":5124,"state_code":"JEM","country_id":169,"country_code":"PS","latitude":"31.83649540","longitude":"35.24263130"},{"id":154009,"name":"Kafr Aqab","state_id":5124,"state_code":"JEM","country_id":169,"country_code":"PS","latitude":"31.87472270","longitude":"35.21724000"},{"id":154011,"name":"Qalandiya","state_id":5124,"state_code":"JEM","country_id":169,"country_code":"PS","latitude":"31.86163130","longitude":"35.18731430"},{"id":154010,"name":"Qatanna","state_id":5124,"state_code":"JEM","country_id":169,"country_code":"PS","latitude":"31.82695730","longitude":"35.08960030"},{"id":154012,"name":"Abasan al-Kabira","state_id":5125,"state_code":"KYS","country_id":169,"country_code":"PS","latitude":"31.32316050","longitude":"34.32342530"},{"id":154015,"name":"Abasan al-Saghira","state_id":5125,"state_code":"KYS","country_id":169,"country_code":"PS","latitude":"31.33974350","longitude":"34.32603330"},{"id":154017,"name":"Al-Qarara","state_id":5125,"state_code":"KYS","country_id":169,"country_code":"PS","latitude":"31.37134650","longitude":"34.31466030"},{"id":154013,"name":"Bani Suheila","state_id":5125,"state_code":"KYS","country_id":169,"country_code":"PS","latitude":"31.34213850","longitude":"34.30465430"},{"id":154014,"name":"Khan Yunis","state_id":5125,"state_code":"KYS","country_id":169,"country_code":"PS","latitude":"31.34623510","longitude":"34.28339890"},{"id":154016,"name":"Khuzaʽa","state_id":5125,"state_code":"KYS","country_id":169,"country_code":"PS","latitude":"31.30705660","longitude":"34.33944730"},{"id":154019,"name":"Aqraba","state_id":5126,"state_code":"NBS","country_id":169,"country_code":"PS","latitude":"32.12762020","longitude":"35.32213530"},{"id":154020,"name":"Asira ash-Shamaliya","state_id":5126,"state_code":"NBS","country_id":169,"country_code":"PS","latitude":"32.25186910","longitude":"35.24757130"},{"id":154026,"name":"Beit Furik","state_id":5126,"state_code":"NBS","country_id":169,"country_code":"PS","latitude":"32.17549020","longitude":"35.31588430"},{"id":154021,"name":"Beita","state_id":5126,"state_code":"NBS","country_id":169,"country_code":"PS","latitude":"32.14137420","longitude":"35.26579930"},{"id":154022,"name":"Huwara","state_id":5126,"state_code":"NBS","country_id":169,"country_code":"PS","latitude":"32.15134720","longitude":"35.23619930"},{"id":154023,"name":"Jammain","state_id":5126,"state_code":"NBS","country_id":169,"country_code":"PS","latitude":"32.13211420","longitude":"35.18274230"},{"id":154018,"name":"Nablus","state_id":5126,"state_code":"NBS","country_id":169,"country_code":"PS","latitude":"32.22437550","longitude":"35.20647930"},{"id":154024,"name":"Qabalan","state_id":5126,"state_code":"NBS","country_id":169,"country_code":"PS","latitude":"32.10185420","longitude":"35.26712930"},{"id":154025,"name":"Sebastia","state_id":5126,"state_code":"NBS","country_id":169,"country_code":"PS","latitude":"32.27827510","longitude":"35.17803330"},{"id":154027,"name":"Beit Hanoun","state_id":5127,"state_code":"NGZ","country_id":169,"country_code":"PS","latitude":"31.53851740","longitude":"34.51617030"},{"id":154028,"name":"Beit Lahia","state_id":5127,"state_code":"NGZ","country_id":169,"country_code":"PS","latitude":"31.55132340","longitude":"34.48862230"},{"id":154029,"name":"Izbat Beit Hanoun","state_id":5127,"state_code":"NGZ","country_id":169,"country_code":"PS","latitude":"31.54728950","longitude":"34.50197220"},{"id":154030,"name":"Jabalia","state_id":5127,"state_code":"NGZ","country_id":169,"country_code":"PS","latitude":"31.52943050","longitude":"34.45914130"},{"id":154031,"name":"Azzun","state_id":5128,"state_code":"QQA","country_id":169,"country_code":"PS","latitude":"32.17713520","longitude":"35.03535730"},{"id":154032,"name":"Hableh","state_id":5128,"state_code":"QQA","country_id":169,"country_code":"PS","latitude":"32.16387820","longitude":"34.95768030"},{"id":154034,"name":"Kafr Thulth","state_id":5128,"state_code":"QQA","country_id":169,"country_code":"PS","latitude":"32.15283320","longitude":"35.02469030"},{"id":154033,"name":"Qalqilya","state_id":5128,"state_code":"QQA","country_id":169,"country_code":"PS","latitude":"32.19604910","longitude":"34.96091330"},{"id":154037,"name":"Al Qarya as Suwaydiya","state_id":5129,"state_code":"RFH","country_id":169,"country_code":"PS","latitude":"31.32316550","longitude":"34.20157530"},{"id":154035,"name":"Al-Bayuk","state_id":5129,"state_code":"RFH","country_id":169,"country_code":"PS","latitude":"31.26347860","longitude":"34.26098130"},{"id":154036,"name":"Al-Mawasi","state_id":5129,"state_code":"RFH","country_id":169,"country_code":"PS","latitude":"31.34844960","longitude":"34.23553630"},{"id":154038,"name":"Rafah","state_id":5129,"state_code":"RFH","country_id":169,"country_code":"PS","latitude":"31.29681450","longitude":"34.22288230"},{"id":154039,"name":"Shokat as-Sufi","state_id":5129,"state_code":"RFH","country_id":169,"country_code":"PS","latitude":"31.25091250","longitude":"34.24516720"},{"id":154040,"name":"Al-Bireh","state_id":5130,"state_code":"RBH","country_id":169,"country_code":"PS","latitude":"31.91259730","longitude":"35.20111730"},{"id":154050,"name":"al-Mazra'a ash-Sharqiya","state_id":5130,"state_code":"RBH","country_id":169,"country_code":"PS","latitude":"32.00327220","longitude":"35.25553230"},{"id":154044,"name":"Bani Zeid al-Sharqiya","state_id":5130,"state_code":"RBH","country_id":169,"country_code":"PS","latitude":"32.04074320","longitude":"35.15327830"},{"id":154045,"name":"Beit Liqya","state_id":5130,"state_code":"RBH","country_id":169,"country_code":"PS","latitude":"31.86997130","longitude":"35.04460230"},{"id":154042,"name":"Beitunia","state_id":5130,"state_code":"RBH","country_id":169,"country_code":"PS","latitude":"31.88931530","longitude":"35.14921330"},{"id":154046,"name":"Bir Zeit","state_id":5130,"state_code":"RBH","country_id":169,"country_code":"PS","latitude":"31.97534830","longitude":"35.17544230"},{"id":154047,"name":"Deir Dibwan","state_id":5130,"state_code":"RBH","country_id":169,"country_code":"PS","latitude":"31.91123930","longitude":"35.24838830"},{"id":154048,"name":"Deir Jarir","state_id":5130,"state_code":"RBH","country_id":169,"country_code":"PS","latitude":"31.96564630","longitude":"35.27317630"},{"id":154049,"name":"Kharbatha al-Misbah","state_id":5130,"state_code":"RBH","country_id":169,"country_code":"PS","latitude":"31.88530030","longitude":"35.05147330"},{"id":154051,"name":"Ni'lin","state_id":5130,"state_code":"RBH","country_id":169,"country_code":"PS","latitude":"31.94687730","longitude":"35.00086130"},{"id":154041,"name":"Ramallah","state_id":5130,"state_code":"RBH","country_id":169,"country_code":"PS","latitude":"31.90741710","longitude":"35.16468200"},{"id":154043,"name":"Rawabi","state_id":5130,"state_code":"RBH","country_id":169,"country_code":"PS","latitude":"32.01021570","longitude":"35.17129410"},{"id":154052,"name":"Silwad","state_id":5130,"state_code":"RBH","country_id":169,"country_code":"PS","latitude":"31.97942420","longitude":"35.24126530"},{"id":154053,"name":"Sinjil","state_id":5130,"state_code":"RBH","country_id":169,"country_code":"PS","latitude":"32.03364130","longitude":"35.24333530"},{"id":154054,"name":"Turmus Ayya","state_id":5130,"state_code":"RBH","country_id":169,"country_code":"PS","latitude":"32.03276020","longitude":"35.26777530"},{"id":154071,"name":"az-Zawiya","state_id":5131,"state_code":"SLT","country_id":169,"country_code":"PS","latitude":"32.09470520","longitude":"35.01867630"},{"id":154055,"name":"Biddya","state_id":5131,"state_code":"SLT","country_id":169,"country_code":"PS","latitude":"32.11340020","longitude":"35.05686530"},{"id":154056,"name":"Bruqin","state_id":5131,"state_code":"SLT","country_id":169,"country_code":"PS","latitude":"32.07264720","longitude":"35.07780630"},{"id":154057,"name":"Deir Ballut","state_id":5131,"state_code":"SLT","country_id":169,"country_code":"PS","latitude":"32.06506720","longitude":"35.00494930"},{"id":154058,"name":"Deir Istiya","state_id":5131,"state_code":"SLT","country_id":169,"country_code":"PS","latitude":"32.13079620","longitude":"35.11953630"},{"id":154059,"name":"Farkha","state_id":5131,"state_code":"SLT","country_id":169,"country_code":"PS","latitude":"32.06877720","longitude":"35.13027630"},{"id":154060,"name":"Haris","state_id":5131,"state_code":"SLT","country_id":169,"country_code":"PS","latitude":"32.11344920","longitude":"35.12311630"},{"id":154061,"name":"Iskaka","state_id":5131,"state_code":"SLT","country_id":169,"country_code":"PS","latitude":"32.10295520","longitude":"35.20394930"},{"id":154062,"name":"Kafr ad-Dik","state_id":5131,"state_code":"SLT","country_id":169,"country_code":"PS","latitude":"32.06863540","longitude":"35.06050810"},{"id":154063,"name":"Kifl Hares","state_id":5131,"state_code":"SLT","country_id":169,"country_code":"PS","latitude":"32.11692420","longitude":"35.13636430"},{"id":154064,"name":"Marda","state_id":5131,"state_code":"SLT","country_id":169,"country_code":"PS","latitude":"32.11425120","longitude":"35.17525130"},{"id":154065,"name":"Mas-ha","state_id":5131,"state_code":"SLT","country_id":169,"country_code":"PS","latitude":"32.10729820","longitude":"35.03037430"},{"id":154066,"name":"Qarawat Bani Hassan","state_id":5131,"state_code":"SLT","country_id":169,"country_code":"PS","latitude":"32.12853920","longitude":"35.07877830"},{"id":154067,"name":"Qira","state_id":5131,"state_code":"SLT","country_id":169,"country_code":"PS","latitude":"32.12213420","longitude":"35.15063230"},{"id":154068,"name":"Rafat","state_id":5131,"state_code":"SLT","country_id":169,"country_code":"PS","latitude":"32.07872020","longitude":"35.02468730"},{"id":154069,"name":"Sarta","state_id":5131,"state_code":"SLT","country_id":169,"country_code":"PS","latitude":"32.10336920","longitude":"35.07123830"},{"id":154070,"name":"Yasuf","state_id":5131,"state_code":"SLT","country_id":169,"country_code":"PS","latitude":"32.10940520","longitude":"35.21911530"},{"id":154073,"name":"Al 'Aqaba","state_id":5132,"state_code":"TBS","country_id":169,"country_code":"PS","latitude":"32.35257060","longitude":"35.32674760"},{"id":154074,"name":"Tammun","state_id":5132,"state_code":"TBS","country_id":169,"country_code":"PS","latitude":"32.28315510","longitude":"35.36518930"},{"id":154072,"name":"Tubas","state_id":5132,"state_code":"TBS","country_id":169,"country_code":"PS","latitude":"32.32112010","longitude":"35.34935330"},{"id":154075,"name":"Anabta","state_id":5133,"state_code":"TKM","country_id":169,"country_code":"PS","latitude":"32.30728710","longitude":"35.09887830"},{"id":154076,"name":"Attil","state_id":5133,"state_code":"TKM","country_id":169,"country_code":"PS","latitude":"32.37010310","longitude":"35.05193830"},{"id":154077,"name":"Bal'a","state_id":5133,"state_code":"TKM","country_id":169,"country_code":"PS","latitude":"32.33255610","longitude":"35.08935330"},{"id":154078,"name":"Baqa ash-Sharqiyya","state_id":5133,"state_code":"TKM","country_id":169,"country_code":"PS","latitude":"32.41117510","longitude":"35.05059330"},{"id":154079,"name":"Beit Lid","state_id":5133,"state_code":"TKM","country_id":169,"country_code":"PS","latitude":"32.26158210","longitude":"35.10968030"},{"id":154080,"name":"Qaffin","state_id":5133,"state_code":"TKM","country_id":169,"country_code":"PS","latitude":"32.43341200","longitude":"35.06370030"},{"id":154081,"name":"Tulkarm","state_id":5133,"state_code":"TKM","country_id":169,"country_code":"PS","latitude":"32.30796480","longitude":"35.00802890"}]