[{"id":22115,"name":"Bavorov","state_id":4639,"state_code":"31","country_id":58,"country_code":"CZ","latitude":"49.12184000","longitude":"14.07893000"},{"id":22118,"name":"Bechyně","state_id":4639,"state_code":"31","country_id":58,"country_code":"CZ","latitude":"49.29523000","longitude":"14.46810000"},{"id":22123,"name":"Benešov nad Černou","state_id":4639,"state_code":"31","country_id":58,"country_code":"CZ","latitude":"48.72940000","longitude":"14.62737000"},{"id":22125,"name":"Bernartice","state_id":4639,"state_code":"31","country_id":58,"country_code":"CZ","latitude":"49.36889000","longitude":"14.38101000"},{"id":22130,"name":"Blatná","state_id":4639,"state_code":"31","country_id":58,"country_code":"CZ","latitude":"49.42489000","longitude":"13.88176000"},{"id":22147,"name":"Borek","state_id":4639,"state_code":"31","country_id":58,"country_code":"CZ","latitude":"49.02339000","longitude":"14.50088000"},{"id":22150,"name":"Borová Lada","state_id":4639,"state_code":"31","country_id":58,"country_code":"CZ","latitude":"48.98983000","longitude":"13.65986000"},{"id":22149,"name":"Borovany","state_id":4639,"state_code":"31","country_id":58,"country_code":"CZ","latitude":"48.89860000","longitude":"14.64227000"},{"id":22164,"name":"Brloh","state_id":4639,"state_code":"31","country_id":58,"country_code":"CZ","latitude":"48.92987000","longitude":"14.21857000"},{"id":23388,"name":"České Budějovice","state_id":4639,"state_code":"31","country_id":58,"country_code":"CZ","latitude":"48.97447000","longitude":"14.47434000"},{"id":23390,"name":"České Velenice","state_id":4639,"state_code":"31","country_id":58,"country_code":"CZ","latitude":"48.76851000","longitude":"14.96368000"},{"id":23393,"name":"Český Krumlov","state_id":4639,"state_code":"31","country_id":58,"country_code":"CZ","latitude":"48.81091000","longitude":"14.31521000"},{"id":23394,"name":"Český Rudolec","state_id":4639,"state_code":"31","country_id":58,"country_code":"CZ","latitude":"49.06835000","longitude":"15.32437000"},{"id":22219,"name":"Chlum u Třeboně","state_id":4639,"state_code":"31","country_id":58,"country_code":"CZ","latitude":"48.96235000","longitude":"14.92799000"},{"id":22227,"name":"Chotoviny","state_id":4639,"state_code":"31","country_id":58,"country_code":"CZ","latitude":"49.47803000","longitude":"14.67695000"},{"id":22240,"name":"Chvalšiny","state_id":4639,"state_code":"31","country_id":58,"country_code":"CZ","latitude":"48.85401000","longitude":"14.21114000"},{"id":22243,"name":"Chýnov","state_id":4639,"state_code":"31","country_id":58,"country_code":"CZ","latitude":"49.40677000","longitude":"14.81122000"},{"id":22242,"name":"Chyšky","state_id":4639,"state_code":"31","country_id":58,"country_code":"CZ","latitude":"49.52346000","longitude":"14.42757000"},{"id":23396,"name":"Čimelice","state_id":4639,"state_code":"31","country_id":58,"country_code":"CZ","latitude":"49.46557000","longitude":"14.06922000"},{"id":23397,"name":"Čkyně","state_id":4639,"state_code":"31","country_id":58,"country_code":"CZ","latitude":"49.11503000","longitude":"13.82906000"},{"id":22252,"name":"Dačice","state_id":4639,"state_code":"31","country_id":58,"country_code":"CZ","latitude":"49.08154000","longitude":"15.43727000"},{"id":22277,"name":"Dolní Bukovsko","state_id":4639,"state_code":"31","country_id":58,"country_code":"CZ","latitude":"49.17086000","longitude":"14.58127000"},{"id":22282,"name":"Dolní Dvořiště","state_id":4639,"state_code":"31","country_id":58,"country_code":"CZ","latitude":"48.65642000","longitude":"14.45221000"},{"id":22324,"name":"Dřiteň","state_id":4639,"state_code":"31","country_id":58,"country_code":"CZ","latitude":"49.14280000","longitude":"14.34596000"},{"id":22313,"name":"Dubné","state_id":4639,"state_code":"31","country_id":58,"country_code":"CZ","latitude":"48.97619000","longitude":"14.36038000"},{"id":22328,"name":"Frymburk","state_id":4639,"state_code":"31","country_id":58,"country_code":"CZ","latitude":"48.66094000","longitude":"14.16564000"},{"id":22355,"name":"Hluboká nad Vltavou","state_id":4639,"state_code":"31","country_id":58,"country_code":"CZ","latitude":"49.05225000","longitude":"14.43427000"},{"id":22385,"name":"Horní Planá","state_id":4639,"state_code":"31","country_id":58,"country_code":"CZ","latitude":"48.76736000","longitude":"14.03257000"},{"id":22390,"name":"Horní Stropnice","state_id":4639,"state_code":"31","country_id":58,"country_code":"CZ","latitude":"48.76124000","longitude":"14.73502000"},{"id":22418,"name":"Hrdějovice","state_id":4639,"state_code":"31","country_id":58,"country_code":"CZ","latitude":"49.01893000","longitude":"14.47857000"},{"id":22436,"name":"Husinec","state_id":4639,"state_code":"31","country_id":58,"country_code":"CZ","latitude":"49.05496000","longitude":"13.98697000"},{"id":22460,"name":"Jarošov nad Nežárkou","state_id":4639,"state_code":"31","country_id":58,"country_code":"CZ","latitude":"49.18989000","longitude":"15.06734000"},{"id":22476,"name":"Jindřichův Hradec","state_id":4639,"state_code":"31","country_id":58,"country_code":"CZ","latitude":"49.14404000","longitude":"15.00301000"},{"id":22479,"name":"Jistebnice","state_id":4639,"state_code":"31","country_id":58,"country_code":"CZ","latitude":"49.48553000","longitude":"14.52760000"},{"id":22582,"name":"Kájov","state_id":4639,"state_code":"31","country_id":58,"country_code":"CZ","latitude":"48.81082000","longitude":"14.25859000"},{"id":22494,"name":"Kamenný Újezd","state_id":4639,"state_code":"31","country_id":58,"country_code":"CZ","latitude":"48.89753000","longitude":"14.44638000"},{"id":22495,"name":"Kaplice","state_id":4639,"state_code":"31","country_id":58,"country_code":"CZ","latitude":"48.73881000","longitude":"14.49449000"},{"id":22496,"name":"Kardašova Řečice","state_id":4639,"state_code":"31","country_id":58,"country_code":"CZ","latitude":"49.18478000","longitude":"14.85315000"},{"id":22503,"name":"Katovice","state_id":4639,"state_code":"31","country_id":58,"country_code":"CZ","latitude":"49.27348000","longitude":"13.83035000"},{"id":22545,"name":"Kovářov","state_id":4639,"state_code":"31","country_id":58,"country_code":"CZ","latitude":"49.51760000","longitude":"14.27809000"},{"id":22583,"name":"Křemže","state_id":4639,"state_code":"31","country_id":58,"country_code":"CZ","latitude":"48.90497000","longitude":"14.30568000"},{"id":22575,"name":"Kunžak","state_id":4639,"state_code":"31","country_id":58,"country_code":"CZ","latitude":"49.12119000","longitude":"15.19028000"},{"id":22592,"name":"Ledenice","state_id":4639,"state_code":"31","country_id":58,"country_code":"CZ","latitude":"48.93329000","longitude":"14.61886000"},{"id":22603,"name":"Lhenice","state_id":4639,"state_code":"31","country_id":58,"country_code":"CZ","latitude":"48.99479000","longitude":"14.14980000"},{"id":22627,"name":"Lišov","state_id":4639,"state_code":"31","country_id":58,"country_code":"CZ","latitude":"49.01597000","longitude":"14.60838000"},{"id":22626,"name":"Litvínovice","state_id":4639,"state_code":"31","country_id":58,"country_code":"CZ","latitude":"48.96207000","longitude":"14.45146000"},{"id":22634,"name":"Lomnice nad Lužnicí","state_id":4639,"state_code":"31","country_id":58,"country_code":"CZ","latitude":"49.08468000","longitude":"14.71727000"},{"id":22640,"name":"Loučovice","state_id":4639,"state_code":"31","country_id":58,"country_code":"CZ","latitude":"48.62019000","longitude":"14.25747000"},{"id":22670,"name":"Malonty","state_id":4639,"state_code":"31","country_id":58,"country_code":"CZ","latitude":"48.68611000","longitude":"14.57678000"},{"id":22674,"name":"Malšice","state_id":4639,"state_code":"31","country_id":58,"country_code":"CZ","latitude":"49.36391000","longitude":"14.57868000"},{"id":22689,"name":"Milevsko","state_id":4639,"state_code":"31","country_id":58,"country_code":"CZ","latitude":"49.45089000","longitude":"14.36000000"},{"id":22696,"name":"Mirotice","state_id":4639,"state_code":"31","country_id":58,"country_code":"CZ","latitude":"49.42908000","longitude":"14.03697000"},{"id":22697,"name":"Mirovice","state_id":4639,"state_code":"31","country_id":58,"country_code":"CZ","latitude":"49.51555000","longitude":"14.03582000"},{"id":22702,"name":"Mladá Vožice","state_id":4639,"state_code":"31","country_id":58,"country_code":"CZ","latitude":"49.53313000","longitude":"14.80857000"},{"id":22762,"name":"Netolice","state_id":4639,"state_code":"31","country_id":58,"country_code":"CZ","latitude":"49.04930000","longitude":"14.19700000"},{"id":22772,"name":"Nová Bystřice","state_id":4639,"state_code":"31","country_id":58,"country_code":"CZ","latitude":"49.01926000","longitude":"15.10316000"},{"id":22776,"name":"Nová Včelnice","state_id":4639,"state_code":"31","country_id":58,"country_code":"CZ","latitude":"49.23935000","longitude":"15.07260000"},{"id":22777,"name":"Nové Hrady","state_id":4639,"state_code":"31","country_id":58,"country_code":"CZ","latitude":"48.78963000","longitude":"14.77839000"},{"id":22877,"name":"Okres České Budějovice","state_id":4639,"state_code":"31","country_id":58,"country_code":"CZ","latitude":"49.00000000","longitude":"14.50000000"},{"id":22878,"name":"Okres Český Krumlov","state_id":4639,"state_code":"31","country_id":58,"country_code":"CZ","latitude":"48.75000000","longitude":"14.33333000"},{"id":22824,"name":"Okres Jindřichův Hradec","state_id":4639,"state_code":"31","country_id":58,"country_code":"CZ","latitude":"49.08333000","longitude":"15.16667000"},{"id":22854,"name":"Okres Písek","state_id":4639,"state_code":"31","country_id":58,"country_code":"CZ","latitude":"49.40000000","longitude":"14.20000000"},{"id":22850,"name":"Okres Prachatice","state_id":4639,"state_code":"31","country_id":58,"country_code":"CZ","latitude":"49.00000000","longitude":"13.86667000"},{"id":22862,"name":"Okres Strakonice","state_id":4639,"state_code":"31","country_id":58,"country_code":"CZ","latitude":"49.26667000","longitude":"13.90000000"},{"id":22867,"name":"Okres Tábor","state_id":4639,"state_code":"31","country_id":58,"country_code":"CZ","latitude":"49.41667000","longitude":"14.66667000"},{"id":22893,"name":"Opařany","state_id":4639,"state_code":"31","country_id":58,"country_code":"CZ","latitude":"49.39678000","longitude":"14.48137000"},{"id":22993,"name":"Písek","state_id":4639,"state_code":"31","country_id":58,"country_code":"CZ","latitude":"49.30880000","longitude":"14.14750000"},{"id":22936,"name":"Planá nad Lužnicí","state_id":4639,"state_code":"31","country_id":58,"country_code":"CZ","latitude":"49.35444000","longitude":"14.70147000"},{"id":22968,"name":"Prachatice","state_id":4639,"state_code":"31","country_id":58,"country_code":"CZ","latitude":"49.01292000","longitude":"13.99752000"},{"id":22982,"name":"Protivín","state_id":4639,"state_code":"31","country_id":58,"country_code":"CZ","latitude":"49.19949000","longitude":"14.21717000"},{"id":23013,"name":"Radomyšl","state_id":4639,"state_code":"31","country_id":58,"country_code":"CZ","latitude":"49.31634000","longitude":"13.93024000"},{"id":23049,"name":"Rudolfov","state_id":4639,"state_code":"31","country_id":58,"country_code":"CZ","latitude":"48.99339000","longitude":"14.54179000"},{"id":23063,"name":"Sedlice","state_id":4639,"state_code":"31","country_id":58,"country_code":"CZ","latitude":"48.77401000","longitude":"14.39115000"},{"id":23069,"name":"Sepekov","state_id":4639,"state_code":"31","country_id":58,"country_code":"CZ","latitude":"49.42865000","longitude":"14.41815000"},{"id":23414,"name":"Ševětín","state_id":4639,"state_code":"31","country_id":58,"country_code":"CZ","latitude":"49.10005000","longitude":"14.57220000"},{"id":23071,"name":"Sezimovo Ústí","state_id":4639,"state_code":"31","country_id":58,"country_code":"CZ","latitude":"49.38519000","longitude":"14.68480000"},{"id":23083,"name":"Slavonice","state_id":4639,"state_code":"31","country_id":58,"country_code":"CZ","latitude":"48.99753000","longitude":"15.35154000"},{"id":23092,"name":"Soběslav","state_id":4639,"state_code":"31","country_id":58,"country_code":"CZ","latitude":"49.25993000","longitude":"14.71861000"},{"id":23098,"name":"Srubec","state_id":4639,"state_code":"31","country_id":58,"country_code":"CZ","latitude":"48.94806000","longitude":"14.54131000"},{"id":23099,"name":"Stachy","state_id":4639,"state_code":"31","country_id":58,"country_code":"CZ","latitude":"49.10179000","longitude":"13.66659000"},{"id":23120,"name":"Strakonice","state_id":4639,"state_code":"31","country_id":58,"country_code":"CZ","latitude":"49.26141000","longitude":"13.90237000"},{"id":23123,"name":"Strmilov","state_id":4639,"state_code":"31","country_id":58,"country_code":"CZ","latitude":"49.15846000","longitude":"15.19934000"},{"id":23124,"name":"Strunkovice nad Blanicí","state_id":4639,"state_code":"31","country_id":58,"country_code":"CZ","latitude":"49.08402000","longitude":"14.05522000"},{"id":23133,"name":"Studená","state_id":4639,"state_code":"31","country_id":58,"country_code":"CZ","latitude":"49.18516000","longitude":"15.28688000"},{"id":23141,"name":"Suchdol nad Lužnicí","state_id":4639,"state_code":"31","country_id":58,"country_code":"CZ","latitude":"48.89000000","longitude":"14.87720000"},{"id":23189,"name":"Tábor","state_id":4639,"state_code":"31","country_id":58,"country_code":"CZ","latitude":"49.41441000","longitude":"14.65780000"},{"id":23200,"name":"Třeboň","state_id":4639,"state_code":"31","country_id":58,"country_code":"CZ","latitude":"49.00364000","longitude":"14.77065000"},{"id":23173,"name":"Trhové Sviny","state_id":4639,"state_code":"31","country_id":58,"country_code":"CZ","latitude":"48.84231000","longitude":"14.63924000"},{"id":23190,"name":"Týn nad Vltavou","state_id":4639,"state_code":"31","country_id":58,"country_code":"CZ","latitude":"49.22340000","longitude":"14.42057000"},{"id":23214,"name":"Vacov","state_id":4639,"state_code":"31","country_id":58,"country_code":"CZ","latitude":"49.13686000","longitude":"13.72911000"},{"id":23313,"name":"Včelná","state_id":4639,"state_code":"31","country_id":58,"country_code":"CZ","latitude":"48.92373000","longitude":"14.45383000"},{"id":23228,"name":"Velešín","state_id":4639,"state_code":"31","country_id":58,"country_code":"CZ","latitude":"48.82949000","longitude":"14.46252000"},{"id":23261,"name":"Veselí nad Lužnicí","state_id":4639,"state_code":"31","country_id":58,"country_code":"CZ","latitude":"49.18430000","longitude":"14.69734000"},{"id":23315,"name":"Větřní","state_id":4639,"state_code":"31","country_id":58,"country_code":"CZ","latitude":"48.77425000","longitude":"14.28616000"},{"id":23271,"name":"Vimperk","state_id":4639,"state_code":"31","country_id":58,"country_code":"CZ","latitude":"49.05857000","longitude":"13.78286000"},{"id":23279,"name":"Vlachovo Březí","state_id":4639,"state_code":"31","country_id":58,"country_code":"CZ","latitude":"49.08135000","longitude":"13.95842000"},{"id":23286,"name":"Vodňany","state_id":4639,"state_code":"31","country_id":58,"country_code":"CZ","latitude":"49.14789000","longitude":"14.17513000"},{"id":23288,"name":"Volary","state_id":4639,"state_code":"31","country_id":58,"country_code":"CZ","latitude":"48.90881000","longitude":"13.88657000"},{"id":23289,"name":"Volyně","state_id":4639,"state_code":"31","country_id":58,"country_code":"CZ","latitude":"49.16578000","longitude":"13.88624000"},{"id":23309,"name":"Vyšší Brod","state_id":4639,"state_code":"31","country_id":58,"country_code":"CZ","latitude":"48.61598000","longitude":"14.31183000"},{"id":23337,"name":"Zdíkov","state_id":4639,"state_code":"31","country_id":58,"country_code":"CZ","latitude":"49.08456000","longitude":"13.69738000"},{"id":23341,"name":"Zliv","state_id":4639,"state_code":"31","country_id":58,"country_code":"CZ","latitude":"49.06608000","longitude":"14.36613000"},{"id":22107,"name":"Adamov","state_id":4602,"state_code":"64","country_id":58,"country_code":"CZ","latitude":"49.30162000","longitude":"16.65253000"},{"id":22196,"name":"Bílovice nad Svitavou","state_id":4602,"state_code":"64","country_id":58,"country_code":"CZ","latitude":"49.24708000","longitude":"16.67247000"},{"id":22129,"name":"Blansko","state_id":4602,"state_code":"64","country_id":58,"country_code":"CZ","latitude":"49.36304000","longitude":"16.64446000"},{"id":22131,"name":"Blažovice","state_id":4602,"state_code":"64","country_id":58,"country_code":"CZ","latitude":"49.16569000","longitude":"16.78611000"},{"id":22136,"name":"Blížkovice","state_id":4602,"state_code":"64","country_id":58,"country_code":"CZ","latitude":"48.99976000","longitude":"15.83482000"},{"id":22134,"name":"Blučina","state_id":4602,"state_code":"64","country_id":58,"country_code":"CZ","latitude":"49.05497000","longitude":"16.64450000"},{"id":22154,"name":"Bořetice","state_id":4602,"state_code":"64","country_id":58,"country_code":"CZ","latitude":"48.91302000","longitude":"16.85306000"},{"id":22155,"name":"Bořitov","state_id":4602,"state_code":"64","country_id":58,"country_code":"CZ","latitude":"49.42504000","longitude":"16.59119000"},{"id":22152,"name":"Boskovice","state_id":4602,"state_code":"64","country_id":58,"country_code":"CZ","latitude":"49.48751000","longitude":"16.65997000"},{"id":22156,"name":"Bošovice","state_id":4602,"state_code":"64","country_id":58,"country_code":"CZ","latitude":"49.05351000","longitude":"16.83676000"},{"id":22157,"name":"Božice","state_id":4602,"state_code":"64","country_id":58,"country_code":"CZ","latitude":"48.83687000","longitude":"16.28875000"},{"id":22204,"name":"Břeclav","state_id":4602,"state_code":"64","country_id":58,"country_code":"CZ","latitude":"48.75897000","longitude":"16.88203000"},{"id":22213,"name":"Březí","state_id":4602,"state_code":"64","country_id":58,"country_code":"CZ","latitude":"48.81928000","longitude":"16.56748000"},{"id":22166,"name":"Brno","state_id":4602,"state_code":"64","country_id":58,"country_code":"CZ","latitude":"49.19522000","longitude":"16.60796000"},{"id":22180,"name":"Bučovice","state_id":4602,"state_code":"64","country_id":58,"country_code":"CZ","latitude":"49.14896000","longitude":"17.00191000"},{"id":22190,"name":"Bzenec","state_id":4602,"state_code":"64","country_id":58,"country_code":"CZ","latitude":"48.97336000","longitude":"17.26685000"},{"id":23363,"name":"Čebín","state_id":4602,"state_code":"64","country_id":58,"country_code":"CZ","latitude":"49.31324000","longitude":"16.47791000"},{"id":23366,"name":"Čejč","state_id":4602,"state_code":"64","country_id":58,"country_code":"CZ","latitude":"48.94653000","longitude":"16.96511000"},{"id":23365,"name":"Čejkovice","state_id":4602,"state_code":"64","country_id":58,"country_code":"CZ","latitude":"48.90592000","longitude":"16.94230000"},{"id":23375,"name":"Černá Hora","state_id":4602,"state_code":"64","country_id":58,"country_code":"CZ","latitude":"49.41361000","longitude":"16.58140000"},{"id":22249,"name":"Dambořice","state_id":4602,"state_code":"64","country_id":58,"country_code":"CZ","latitude":"49.03828000","longitude":"16.91757000"},{"id":22267,"name":"Dobšice","state_id":4602,"state_code":"64","country_id":58,"country_code":"CZ","latitude":"48.84834000","longitude":"16.08218000"},{"id":22275,"name":"Dolní Bojanovice","state_id":4602,"state_code":"64","country_id":58,"country_code":"CZ","latitude":"48.85861000","longitude":"17.02859000"},{"id":22281,"name":"Dolní Dunajovice","state_id":4602,"state_code":"64","country_id":58,"country_code":"CZ","latitude":"48.85447000","longitude":"16.59283000"},{"id":22283,"name":"Dolní Kounice","state_id":4602,"state_code":"64","country_id":58,"country_code":"CZ","latitude":"49.07011000","longitude":"16.46492000"},{"id":22285,"name":"Dolní Loućky","state_id":4602,"state_code":"64","country_id":58,"country_code":"CZ","latitude":"49.36099000","longitude":"16.35871000"},{"id":22302,"name":"Domanín","state_id":4602,"state_code":"64","country_id":58,"country_code":"CZ","latitude":"49.00167000","longitude":"17.28476000"},{"id":22305,"name":"Doubravice nad Svitavou","state_id":4602,"state_code":"64","country_id":58,"country_code":"CZ","latitude":"49.43664000","longitude":"16.62937000"},{"id":22310,"name":"Drásov","state_id":4602,"state_code":"64","country_id":58,"country_code":"CZ","latitude":"49.33183000","longitude":"16.47798000"},{"id":22308,"name":"Drnholec","state_id":4602,"state_code":"64","country_id":58,"country_code":"CZ","latitude":"48.85746000","longitude":"16.48586000"},{"id":22309,"name":"Drnovice","state_id":4602,"state_code":"64","country_id":58,"country_code":"CZ","latitude":"49.27630000","longitude":"16.95146000"},{"id":22316,"name":"Dubňany","state_id":4602,"state_code":"64","country_id":58,"country_code":"CZ","latitude":"48.91694000","longitude":"17.09004000"},{"id":22350,"name":"Hevlín","state_id":4602,"state_code":"64","country_id":58,"country_code":"CZ","latitude":"48.75209000","longitude":"16.38131000"},{"id":22354,"name":"Hlohovec","state_id":4602,"state_code":"64","country_id":58,"country_code":"CZ","latitude":"48.77399000","longitude":"16.76230000"},{"id":22364,"name":"Hodonice","state_id":4602,"state_code":"64","country_id":58,"country_code":"CZ","latitude":"48.83680000","longitude":"16.16337000"},{"id":22365,"name":"Hodonín","state_id":4602,"state_code":"64","country_id":58,"country_code":"CZ","latitude":"48.84893000","longitude":"17.13244000"},{"id":22403,"name":"Hostěradice","state_id":4602,"state_code":"64","country_id":58,"country_code":"CZ","latitude":"48.95006000","longitude":"16.25931000"},{"id":22404,"name":"Hovorany","state_id":4602,"state_code":"64","country_id":58,"country_code":"CZ","latitude":"48.95493000","longitude":"16.99346000"},{"id":22424,"name":"Hroznová Lhota","state_id":4602,"state_code":"64","country_id":58,"country_code":"CZ","latitude":"48.90784000","longitude":"17.41697000"},{"id":22426,"name":"Hrušky","state_id":4602,"state_code":"64","country_id":58,"country_code":"CZ","latitude":"48.79272000","longitude":"16.97404000"},{"id":22427,"name":"Hrušovany nad Jevišovkou","state_id":4602,"state_code":"64","country_id":58,"country_code":"CZ","latitude":"48.82991000","longitude":"16.40271000"},{"id":22428,"name":"Hrušovany u Brna","state_id":4602,"state_code":"64","country_id":58,"country_code":"CZ","latitude":"49.03863000","longitude":"16.59429000"},{"id":22437,"name":"Hustopeče","state_id":4602,"state_code":"64","country_id":58,"country_code":"CZ","latitude":"48.94085000","longitude":"16.73762000"},{"id":22444,"name":"Ivančice","state_id":4602,"state_code":"64","country_id":58,"country_code":"CZ","latitude":"49.10144000","longitude":"16.37752000"},{"id":22443,"name":"Ivanovice na Hané","state_id":4602,"state_code":"64","country_id":58,"country_code":"CZ","latitude":"49.30542000","longitude":"17.09343000"},{"id":22459,"name":"Jaroslavice","state_id":4602,"state_code":"64","country_id":58,"country_code":"CZ","latitude":"48.75657000","longitude":"16.23351000"},{"id":22463,"name":"Jedovnice","state_id":4602,"state_code":"64","country_id":58,"country_code":"CZ","latitude":"49.34453000","longitude":"16.75595000"},{"id":22469,"name":"Jevišovice","state_id":4602,"state_code":"64","country_id":58,"country_code":"CZ","latitude":"48.98736000","longitude":"15.98992000"},{"id":22516,"name":"Klobouky","state_id":4602,"state_code":"64","country_id":58,"country_code":"CZ","latitude":"48.99609000","longitude":"16.86298000"},{"id":22520,"name":"Kněždub","state_id":4602,"state_code":"64","country_id":58,"country_code":"CZ","latitude":"48.88666000","longitude":"17.39546000"},{"id":22525,"name":"Kobylí","state_id":4602,"state_code":"64","country_id":58,"country_code":"CZ","latitude":"48.93286000","longitude":"16.89159000"},{"id":22542,"name":"Kostice","state_id":4602,"state_code":"64","country_id":58,"country_code":"CZ","latitude":"48.74685000","longitude":"16.97869000"},{"id":22584,"name":"Křenovice","state_id":4602,"state_code":"64","country_id":58,"country_code":"CZ","latitude":"49.14216000","longitude":"16.82932000"},{"id":22585,"name":"Křepice","state_id":4602,"state_code":"64","country_id":58,"country_code":"CZ","latitude":"48.99986000","longitude":"16.71989000"},{"id":22562,"name":"Krumvíř","state_id":4602,"state_code":"64","country_id":58,"country_code":"CZ","latitude":"48.98901000","longitude":"16.91027000"},{"id":22574,"name":"Kunštát","state_id":4602,"state_code":"64","country_id":58,"country_code":"CZ","latitude":"49.50645000","longitude":"16.51722000"},{"id":22577,"name":"Kuřim","state_id":4602,"state_code":"64","country_id":58,"country_code":"CZ","latitude":"49.29852000","longitude":"16.53144000"},{"id":22580,"name":"Kyjov","state_id":4602,"state_code":"64","country_id":58,"country_code":"CZ","latitude":"49.01018000","longitude":"17.12253000"},{"id":22591,"name":"Lanžhot","state_id":4602,"state_code":"64","country_id":58,"country_code":"CZ","latitude":"48.72443000","longitude":"16.96695000"},{"id":22594,"name":"Lednice","state_id":4602,"state_code":"64","country_id":58,"country_code":"CZ","latitude":"48.79992000","longitude":"16.80339000"},{"id":22595,"name":"Lelekovice","state_id":4602,"state_code":"64","country_id":58,"country_code":"CZ","latitude":"49.29144000","longitude":"16.57874000"},{"id":22598,"name":"Letonice","state_id":4602,"state_code":"64","country_id":58,"country_code":"CZ","latitude":"49.17726000","longitude":"16.95913000"},{"id":22599,"name":"Letovice","state_id":4602,"state_code":"64","country_id":58,"country_code":"CZ","latitude":"49.54709000","longitude":"16.57357000"},{"id":22618,"name":"Lipov","state_id":4602,"state_code":"64","country_id":58,"country_code":"CZ","latitude":"48.90495000","longitude":"17.46171000"},{"id":22619,"name":"Lipovec","state_id":4602,"state_code":"64","country_id":58,"country_code":"CZ","latitude":"49.38394000","longitude":"16.80583000"},{"id":22621,"name":"Lipůvka","state_id":4602,"state_code":"64","country_id":58,"country_code":"CZ","latitude":"49.33933000","longitude":"16.55313000"},{"id":22632,"name":"Lomnice","state_id":4602,"state_code":"64","country_id":58,"country_code":"CZ","latitude":"49.40462000","longitude":"16.41359000"},{"id":22636,"name":"Louka","state_id":4602,"state_code":"64","country_id":58,"country_code":"CZ","latitude":"48.91517000","longitude":"17.48927000"},{"id":22657,"name":"Lužice","state_id":4602,"state_code":"64","country_id":58,"country_code":"CZ","latitude":"48.84098000","longitude":"17.07104000"},{"id":22659,"name":"Lysice","state_id":4602,"state_code":"64","country_id":58,"country_code":"CZ","latitude":"49.45160000","longitude":"16.53716000"},{"id":22737,"name":"Měnín","state_id":4602,"state_code":"64","country_id":58,"country_code":"CZ","latitude":"49.08240000","longitude":"16.69424000"},{"id":22742,"name":"Město Brno","state_id":4602,"state_code":"64","country_id":58,"country_code":"CZ","latitude":"49.19954000","longitude":"16.60755000"},{"id":22688,"name":"Mikulčice","state_id":4602,"state_code":"64","country_id":58,"country_code":"CZ","latitude":"48.81643000","longitude":"17.05107000"},{"id":22685,"name":"Mikulov","state_id":4602,"state_code":"64","country_id":58,"country_code":"CZ","latitude":"48.80556000","longitude":"16.63780000"},{"id":22690,"name":"Milotice","state_id":4602,"state_code":"64","country_id":58,"country_code":"CZ","latitude":"48.95528000","longitude":"17.14241000"},{"id":22695,"name":"Miroslav","state_id":4602,"state_code":"64","country_id":58,"country_code":"CZ","latitude":"48.94767000","longitude":"16.31252000"},{"id":22709,"name":"Modřice","state_id":4602,"state_code":"64","country_id":58,"country_code":"CZ","latitude":"49.11928000","longitude":"16.60446000"},{"id":22712,"name":"Mokrá Hora","state_id":4602,"state_code":"64","country_id":58,"country_code":"CZ","latitude":"49.26176000","longitude":"16.59107000"},{"id":22715,"name":"Moravany","state_id":4602,"state_code":"64","country_id":58,"country_code":"CZ","latitude":"49.14780000","longitude":"16.58026000"},{"id":22717,"name":"Moravská Nová Ves","state_id":4602,"state_code":"64","country_id":58,"country_code":"CZ","latitude":"48.80304000","longitude":"17.01371000"},{"id":22721,"name":"Moravský Krumlov","state_id":4602,"state_code":"64","country_id":58,"country_code":"CZ","latitude":"49.04893000","longitude":"16.31169000"},{"id":22722,"name":"Moravský Písek","state_id":4602,"state_code":"64","country_id":58,"country_code":"CZ","latitude":"48.99016000","longitude":"17.33269000"},{"id":22723,"name":"Moravský Žižkov","state_id":4602,"state_code":"64","country_id":58,"country_code":"CZ","latitude":"48.83285000","longitude":"16.93140000"},{"id":22729,"name":"Moutnice","state_id":4602,"state_code":"64","country_id":58,"country_code":"CZ","latitude":"49.04924000","longitude":"16.73741000"},{"id":22733,"name":"Mutěnice","state_id":4602,"state_code":"64","country_id":58,"country_code":"CZ","latitude":"48.90413000","longitude":"17.02917000"},{"id":22755,"name":"Nedvědice","state_id":4602,"state_code":"64","country_id":58,"country_code":"CZ","latitude":"49.45702000","longitude":"16.33406000"},{"id":22761,"name":"Nesovice","state_id":4602,"state_code":"64","country_id":58,"country_code":"CZ","latitude":"49.15111000","longitude":"17.08095000"},{"id":22769,"name":"Nosislav","state_id":4602,"state_code":"64","country_id":58,"country_code":"CZ","latitude":"49.01380000","longitude":"16.65431000"},{"id":22771,"name":"Novosedly","state_id":4602,"state_code":"64","country_id":58,"country_code":"CZ","latitude":"48.83704000","longitude":"16.49273000"},{"id":22808,"name":"Okres Blansko","state_id":4602,"state_code":"64","country_id":58,"country_code":"CZ","latitude":"49.37399000","longitude":"16.64360000"},{"id":22811,"name":"Okres Břeclav","state_id":4602,"state_code":"64","country_id":58,"country_code":"CZ","latitude":"48.75958000","longitude":"16.87260000"},{"id":22809,"name":"Okres Brno-venkov","state_id":4602,"state_code":"64","country_id":58,"country_code":"CZ","latitude":"49.16667000","longitude":"16.50000000"},{"id":22819,"name":"Okres Hodonín","state_id":4602,"state_code":"64","country_id":58,"country_code":"CZ","latitude":"48.86471000","longitude":"17.13284000"},{"id":22871,"name":"Okres Vyškov","state_id":4602,"state_code":"64","country_id":58,"country_code":"CZ","latitude":"49.27844000","longitude":"16.99362000"},{"id":22873,"name":"Okres Znojmo","state_id":4602,"state_code":"64","country_id":58,"country_code":"CZ","latitude":"48.86200000","longitude":"16.06270000"},{"id":22883,"name":"Olbramovice","state_id":4602,"state_code":"64","country_id":58,"country_code":"CZ","latitude":"48.98480000","longitude":"16.40239000"},{"id":22885,"name":"Olešnice","state_id":4602,"state_code":"64","country_id":58,"country_code":"CZ","latitude":"49.55755000","longitude":"16.42169000"},{"id":22916,"name":"Ořechov","state_id":4602,"state_code":"64","country_id":58,"country_code":"CZ","latitude":"49.11118000","longitude":"16.52329000"},{"id":22901,"name":"Oslavany","state_id":4602,"state_code":"64","country_id":58,"country_code":"CZ","latitude":"49.12335000","longitude":"16.33653000"},{"id":22903,"name":"Ostopovice","state_id":4602,"state_code":"64","country_id":58,"country_code":"CZ","latitude":"49.16100000","longitude":"16.54548000"},{"id":22908,"name":"Ostrov u Macochy","state_id":4602,"state_code":"64","country_id":58,"country_code":"CZ","latitude":"49.38236000","longitude":"16.76268000"},{"id":22914,"name":"Otnice","state_id":4602,"state_code":"64","country_id":58,"country_code":"CZ","latitude":"49.08642000","longitude":"16.81443000"},{"id":22928,"name":"Petrov","state_id":4602,"state_code":"64","country_id":58,"country_code":"CZ","latitude":"48.88196000","longitude":"17.27810000"},{"id":22945,"name":"Podivín","state_id":4602,"state_code":"64","country_id":58,"country_code":"CZ","latitude":"48.82554000","longitude":"16.84822000"},{"id":22946,"name":"Podolí","state_id":4602,"state_code":"64","country_id":58,"country_code":"CZ","latitude":"49.19042000","longitude":"16.72084000"},{"id":22948,"name":"Pohořelice","state_id":4602,"state_code":"64","country_id":58,"country_code":"CZ","latitude":"48.98119000","longitude":"16.52445000"},{"id":22964,"name":"Pozořice","state_id":4602,"state_code":"64","country_id":58,"country_code":"CZ","latitude":"49.20976000","longitude":"16.79074000"},{"id":22997,"name":"Předklášteří","state_id":4602,"state_code":"64","country_id":58,"country_code":"CZ","latitude":"49.35253000","longitude":"16.40241000"},{"id":22985,"name":"Prušánky","state_id":4602,"state_code":"64","country_id":58,"country_code":"CZ","latitude":"48.82840000","longitude":"16.98068000"},{"id":22989,"name":"Pustiměř","state_id":4602,"state_code":"64","country_id":58,"country_code":"CZ","latitude":"49.32251000","longitude":"17.02792000"},{"id":23055,"name":"Rájec-Jestřebí","state_id":4602,"state_code":"64","country_id":58,"country_code":"CZ","latitude":"49.41094000","longitude":"16.63902000"},{"id":23056,"name":"Ráječko","state_id":4602,"state_code":"64","country_id":58,"country_code":"CZ","latitude":"49.39393000","longitude":"16.64497000"},{"id":23017,"name":"Rajhrad","state_id":4602,"state_code":"64","country_id":58,"country_code":"CZ","latitude":"49.09021000","longitude":"16.60388000"},{"id":23018,"name":"Rajhradice","state_id":4602,"state_code":"64","country_id":58,"country_code":"CZ","latitude":"49.09203000","longitude":"16.62933000"},{"id":23020,"name":"Rakvice","state_id":4602,"state_code":"64","country_id":58,"country_code":"CZ","latitude":"48.85811000","longitude":"16.81330000"},{"id":23025,"name":"Ratíškovice","state_id":4602,"state_code":"64","country_id":58,"country_code":"CZ","latitude":"48.92002000","longitude":"17.16561000"},{"id":23407,"name":"Říčany","state_id":4602,"state_code":"64","country_id":58,"country_code":"CZ","latitude":"49.21497000","longitude":"16.39362000"},{"id":23027,"name":"Rohatec","state_id":4602,"state_code":"64","country_id":58,"country_code":"CZ","latitude":"48.88040000","longitude":"17.18330000"},{"id":23035,"name":"Rosice","state_id":4602,"state_code":"64","country_id":58,"country_code":"CZ","latitude":"49.18232000","longitude":"16.38787000"},{"id":23039,"name":"Rousínov","state_id":4602,"state_code":"64","country_id":58,"country_code":"CZ","latitude":"49.20128000","longitude":"16.88215000"},{"id":23408,"name":"Šakvice","state_id":4602,"state_code":"64","country_id":58,"country_code":"CZ","latitude":"48.89746000","longitude":"16.71424000"},{"id":23409,"name":"Šanov","state_id":4602,"state_code":"64","country_id":58,"country_code":"CZ","latitude":"48.80089000","longitude":"16.37858000"},{"id":23410,"name":"Šardice","state_id":4602,"state_code":"64","country_id":58,"country_code":"CZ","latitude":"48.96403000","longitude":"17.02812000"},{"id":23411,"name":"Šatov","state_id":4602,"state_code":"64","country_id":58,"country_code":"CZ","latitude":"48.79317000","longitude":"16.00992000"},{"id":23416,"name":"Šitbořice","state_id":4602,"state_code":"64","country_id":58,"country_code":"CZ","latitude":"49.01433000","longitude":"16.77975000"},{"id":23417,"name":"Šlapanice","state_id":4602,"state_code":"64","country_id":58,"country_code":"CZ","latitude":"49.16863000","longitude":"16.72731000"},{"id":23082,"name":"Slavkov u Brna","state_id":4602,"state_code":"64","country_id":58,"country_code":"CZ","latitude":"49.15325000","longitude":"16.87649000"},{"id":23093,"name":"Sokolnice","state_id":4602,"state_code":"64","country_id":58,"country_code":"CZ","latitude":"49.11392000","longitude":"16.72156000"},{"id":23129,"name":"Strážnice","state_id":4602,"state_code":"64","country_id":58,"country_code":"CZ","latitude":"48.90102000","longitude":"17.31680000"},{"id":23137,"name":"Střelice","state_id":4602,"state_code":"64","country_id":58,"country_code":"CZ","latitude":"49.15221000","longitude":"16.50399000"},{"id":23142,"name":"Suchohrdly","state_id":4602,"state_code":"64","country_id":58,"country_code":"CZ","latitude":"48.86822000","longitude":"16.09471000"},{"id":23145,"name":"Sudoměřice","state_id":4602,"state_code":"64","country_id":58,"country_code":"CZ","latitude":"48.86723000","longitude":"17.25676000"},{"id":23150,"name":"Svitávka","state_id":4602,"state_code":"64","country_id":58,"country_code":"CZ","latitude":"49.50178000","longitude":"16.59793000"},{"id":23157,"name":"Tasovice","state_id":4602,"state_code":"64","country_id":58,"country_code":"CZ","latitude":"48.83610000","longitude":"16.15558000"},{"id":23158,"name":"Telnice","state_id":4602,"state_code":"64","country_id":58,"country_code":"CZ","latitude":"49.10187000","longitude":"16.71774000"},{"id":23195,"name":"Těšany","state_id":4602,"state_code":"64","country_id":58,"country_code":"CZ","latitude":"49.03956000","longitude":"16.77003000"},{"id":23166,"name":"Tišnov","state_id":4602,"state_code":"64","country_id":58,"country_code":"CZ","latitude":"49.34872000","longitude":"16.42438000"},{"id":23180,"name":"Troubsko","state_id":4602,"state_code":"64","country_id":58,"country_code":"CZ","latitude":"49.16951000","longitude":"16.51078000"},{"id":23187,"name":"Tvarožná","state_id":4602,"state_code":"64","country_id":58,"country_code":"CZ","latitude":"49.19177000","longitude":"16.77146000"},{"id":23188,"name":"Tvrdonice","state_id":4602,"state_code":"64","country_id":58,"country_code":"CZ","latitude":"48.76048000","longitude":"16.99446000"},{"id":23191,"name":"Týnec","state_id":4602,"state_code":"64","country_id":58,"country_code":"CZ","latitude":"48.77943000","longitude":"17.01322000"},{"id":23356,"name":"Únanov","state_id":4602,"state_code":"64","country_id":58,"country_code":"CZ","latitude":"48.90082000","longitude":"16.06351000"},{"id":23213,"name":"Vacenovice","state_id":4602,"state_code":"64","country_id":58,"country_code":"CZ","latitude":"48.94510000","longitude":"17.17404000"},{"id":23221,"name":"Valtice","state_id":4602,"state_code":"64","country_id":58,"country_code":"CZ","latitude":"48.74069000","longitude":"16.75499000"},{"id":23235,"name":"Velká nad Veličkou","state_id":4602,"state_code":"64","country_id":58,"country_code":"CZ","latitude":"48.88257000","longitude":"17.52060000"},{"id":23236,"name":"Velké Bílovice","state_id":4602,"state_code":"64","country_id":58,"country_code":"CZ","latitude":"48.84929000","longitude":"16.89227000"},{"id":23244,"name":"Velké Němčice","state_id":4602,"state_code":"64","country_id":58,"country_code":"CZ","latitude":"48.99168000","longitude":"16.67208000"},{"id":23245,"name":"Velké Opatovice","state_id":4602,"state_code":"64","country_id":58,"country_code":"CZ","latitude":"49.61237000","longitude":"16.67947000"},{"id":23246,"name":"Velké Pavlovice","state_id":4602,"state_code":"64","country_id":58,"country_code":"CZ","latitude":"48.90469000","longitude":"16.81605000"},{"id":23262,"name":"Veselí nad Moravou","state_id":4602,"state_code":"64","country_id":58,"country_code":"CZ","latitude":"48.95363000","longitude":"17.37648000"},{"id":23264,"name":"Veverská Bítýška","state_id":4602,"state_code":"64","country_id":58,"country_code":"CZ","latitude":"49.27591000","longitude":"16.43686000"},{"id":23273,"name":"Viničné Šumice","state_id":4602,"state_code":"64","country_id":58,"country_code":"CZ","latitude":"49.21358000","longitude":"16.82541000"},{"id":23277,"name":"Višňové","state_id":4602,"state_code":"64","country_id":58,"country_code":"CZ","latitude":"48.98241000","longitude":"16.15025000"},{"id":23282,"name":"Vlkoš","state_id":4602,"state_code":"64","country_id":58,"country_code":"CZ","latitude":"48.98960000","longitude":"17.16356000"},{"id":23285,"name":"Vnorovy","state_id":4602,"state_code":"64","country_id":58,"country_code":"CZ","latitude":"48.93096000","longitude":"17.35050000"},{"id":23287,"name":"Vojkovice","state_id":4602,"state_code":"64","country_id":58,"country_code":"CZ","latitude":"49.05138000","longitude":"16.60820000"},{"id":23291,"name":"Vracov","state_id":4602,"state_code":"64","country_id":58,"country_code":"CZ","latitude":"48.97523000","longitude":"17.21100000"},{"id":23292,"name":"Vranovice","state_id":4602,"state_code":"64","country_id":58,"country_code":"CZ","latitude":"48.96600000","longitude":"16.60660000"},{"id":23295,"name":"Vrbice","state_id":4602,"state_code":"64","country_id":58,"country_code":"CZ","latitude":"48.91508000","longitude":"16.89779000"},{"id":23298,"name":"Vrbovec","state_id":4602,"state_code":"64","country_id":58,"country_code":"CZ","latitude":"48.79978000","longitude":"16.10061000"},{"id":23308,"name":"Vyškov","state_id":4602,"state_code":"64","country_id":58,"country_code":"CZ","latitude":"49.27747000","longitude":"16.99897000"},{"id":23435,"name":"Žabčice","state_id":4602,"state_code":"64","country_id":58,"country_code":"CZ","latitude":"49.01160000","longitude":"16.60257000"},{"id":23325,"name":"Zaječí","state_id":4602,"state_code":"64","country_id":58,"country_code":"CZ","latitude":"48.87295000","longitude":"16.76646000"},{"id":23326,"name":"Zastávka","state_id":4602,"state_code":"64","country_id":58,"country_code":"CZ","latitude":"49.18800000","longitude":"16.36310000"},{"id":23330,"name":"Zbraslav","state_id":4602,"state_code":"64","country_id":58,"country_code":"CZ","latitude":"49.22155000","longitude":"16.29415000"},{"id":23332,"name":"Zbýšov","state_id":4602,"state_code":"64","country_id":58,"country_code":"CZ","latitude":"49.15524000","longitude":"16.34951000"},{"id":23440,"name":"Ždánice","state_id":4602,"state_code":"64","country_id":58,"country_code":"CZ","latitude":"49.06729000","longitude":"17.02751000"},{"id":23446,"name":"Želešice","state_id":4602,"state_code":"64","country_id":58,"country_code":"CZ","latitude":"49.11689000","longitude":"16.58137000"},{"id":23448,"name":"Žeravice","state_id":4602,"state_code":"64","country_id":58,"country_code":"CZ","latitude":"49.02288000","longitude":"17.23726000"},{"id":23449,"name":"Židlochovice","state_id":4602,"state_code":"64","country_id":58,"country_code":"CZ","latitude":"49.03952000","longitude":"16.61881000"},{"id":23344,"name":"Znojmo","state_id":4602,"state_code":"64","country_id":58,"country_code":"CZ","latitude":"48.85550000","longitude":"16.04880000"},{"id":22106,"name":"Abertamy","state_id":4581,"state_code":"41","country_id":58,"country_code":"CZ","latitude":"50.36874000","longitude":"12.81826000"},{"id":22110,"name":"Aš","state_id":4581,"state_code":"41","country_id":58,"country_code":"CZ","latitude":"50.22387000","longitude":"12.19499000"},{"id":22137,"name":"Bochov","state_id":4581,"state_code":"41","country_id":58,"country_code":"CZ","latitude":"50.14872000","longitude":"13.05227000"},{"id":22209,"name":"Březová","state_id":4581,"state_code":"41","country_id":58,"country_code":"CZ","latitude":"50.14557000","longitude":"12.64996000"},{"id":22178,"name":"Bukovany","state_id":4581,"state_code":"41","country_id":58,"country_code":"CZ","latitude":"50.16632000","longitude":"12.57265000"},{"id":22217,"name":"Cheb","state_id":4581,"state_code":"41","country_id":58,"country_code":"CZ","latitude":"50.07963000","longitude":"12.37392000"},{"id":22224,"name":"Chodov","state_id":4581,"state_code":"41","country_id":58,"country_code":"CZ","latitude":"50.24018000","longitude":"12.74551000"},{"id":22248,"name":"Dalovice","state_id":4581,"state_code":"41","country_id":58,"country_code":"CZ","latitude":"50.24779000","longitude":"12.89581000"},{"id":22292,"name":"Dolní Rychnov","state_id":4581,"state_code":"41","country_id":58,"country_code":"CZ","latitude":"50.16462000","longitude":"12.64507000"},{"id":22299,"name":"Dolní Žandov","state_id":4581,"state_code":"41","country_id":58,"country_code":"CZ","latitude":"50.01794000","longitude":"12.55101000"},{"id":22326,"name":"Františkovy Lázně","state_id":4581,"state_code":"41","country_id":58,"country_code":"CZ","latitude":"50.12033000","longitude":"12.35174000"},{"id":22337,"name":"Habartov","state_id":4581,"state_code":"41","country_id":58,"country_code":"CZ","latitude":"50.18297000","longitude":"12.55054000"},{"id":22346,"name":"Hazlov","state_id":4581,"state_code":"41","country_id":58,"country_code":"CZ","latitude":"50.15634000","longitude":"12.27238000"},{"id":22388,"name":"Horní Slavkov","state_id":4581,"state_code":"41","country_id":58,"country_code":"CZ","latitude":"50.13863000","longitude":"12.80758000"},{"id":22416,"name":"Hranice","state_id":4581,"state_code":"41","country_id":58,"country_code":"CZ","latitude":"50.30459000","longitude":"12.17577000"},{"id":22425,"name":"Hroznětín","state_id":4581,"state_code":"41","country_id":58,"country_code":"CZ","latitude":"50.30940000","longitude":"12.87180000"},{"id":22484,"name":"Jáchymov","state_id":4581,"state_code":"41","country_id":58,"country_code":"CZ","latitude":"50.35846000","longitude":"12.93465000"},{"id":22498,"name":"Karlovy Vary","state_id":4581,"state_code":"41","country_id":58,"country_code":"CZ","latitude":"50.23271000","longitude":"12.87117000"},{"id":22518,"name":"Klášter","state_id":4581,"state_code":"41","country_id":58,"country_code":"CZ","latitude":"49.96762000","longitude":"12.87623000"},{"id":22556,"name":"Kraslice","state_id":4581,"state_code":"41","country_id":58,"country_code":"CZ","latitude":"50.32372000","longitude":"12.51747000"},{"id":22581,"name":"Kynšperk nad Ohří","state_id":4581,"state_code":"41","country_id":58,"country_code":"CZ","latitude":"50.11893000","longitude":"12.53027000"},{"id":22664,"name":"Lázně Kynžvart","state_id":4581,"state_code":"41","country_id":58,"country_code":"CZ","latitude":"50.01058000","longitude":"12.62474000"},{"id":22630,"name":"Loket","state_id":4581,"state_code":"41","country_id":58,"country_code":"CZ","latitude":"50.18600000","longitude":"12.75405000"},{"id":22633,"name":"Lomnice","state_id":4581,"state_code":"41","country_id":58,"country_code":"CZ","latitude":"50.21174000","longitude":"12.63267000"},{"id":22644,"name":"Luby","state_id":4581,"state_code":"41","country_id":58,"country_code":"CZ","latitude":"50.25248000","longitude":"12.40595000"},{"id":22676,"name":"Mariánské Lázně","state_id":4581,"state_code":"41","country_id":58,"country_code":"CZ","latitude":"49.96459000","longitude":"12.70118000"},{"id":22681,"name":"Merklín","state_id":4581,"state_code":"41","country_id":58,"country_code":"CZ","latitude":"50.32808000","longitude":"12.86350000"},{"id":22740,"name":"Město","state_id":4581,"state_code":"41","country_id":58,"country_code":"CZ","latitude":"49.97997000","longitude":"12.86432000"},{"id":22757,"name":"Nejdek","state_id":4581,"state_code":"41","country_id":58,"country_code":"CZ","latitude":"50.32242000","longitude":"12.72936000"},{"id":22775,"name":"Nová Role","state_id":4581,"state_code":"41","country_id":58,"country_code":"CZ","latitude":"50.27092000","longitude":"12.78422000"},{"id":22781,"name":"Nové Sedlo","state_id":4581,"state_code":"41","country_id":58,"country_code":"CZ","latitude":"50.20647000","longitude":"12.73800000"},{"id":22812,"name":"Okres Cheb","state_id":4581,"state_code":"41","country_id":58,"country_code":"CZ","latitude":"50.08333000","longitude":"12.50000000"},{"id":22826,"name":"Okres Karlovy Vary","state_id":4581,"state_code":"41","country_id":58,"country_code":"CZ","latitude":"50.16667000","longitude":"13.00000000"},{"id":22861,"name":"Okres Sokolov","state_id":4581,"state_code":"41","country_id":58,"country_code":"CZ","latitude":"50.21667000","longitude":"12.63333000"},{"id":22887,"name":"Oloví","state_id":4581,"state_code":"41","country_id":58,"country_code":"CZ","latitude":"50.25113000","longitude":"12.55877000"},{"id":22907,"name":"Ostrov","state_id":4581,"state_code":"41","country_id":58,"country_code":"CZ","latitude":"50.30592000","longitude":"12.93907000"},{"id":22940,"name":"Plesná","state_id":4581,"state_code":"41","country_id":58,"country_code":"CZ","latitude":"50.22070000","longitude":"12.34669000"},{"id":23036,"name":"Rotava","state_id":4581,"state_code":"41","country_id":58,"country_code":"CZ","latitude":"50.29627000","longitude":"12.57341000"},{"id":23058,"name":"Sadov","state_id":4581,"state_code":"41","country_id":58,"country_code":"CZ","latitude":"50.26711000","longitude":"12.89708000"},{"id":23073,"name":"Skalná","state_id":4581,"state_code":"41","country_id":58,"country_code":"CZ","latitude":"50.17030000","longitude":"12.36144000"},{"id":23094,"name":"Sokolov","state_id":4581,"state_code":"41","country_id":58,"country_code":"CZ","latitude":"50.18130000","longitude":"12.64010000"},{"id":23147,"name":"Svatava","state_id":4581,"state_code":"41","country_id":58,"country_code":"CZ","latitude":"50.19223000","longitude":"12.62524000"},{"id":23170,"name":"Toužim","state_id":4581,"state_code":"41","country_id":58,"country_code":"CZ","latitude":"50.06049000","longitude":"12.98506000"},{"id":23233,"name":"Velká Hleďsebe","state_id":4581,"state_code":"41","country_id":58,"country_code":"CZ","latitude":"49.96151000","longitude":"12.66763000"},{"id":23274,"name":"Vintířov","state_id":4581,"state_code":"41","country_id":58,"country_code":"CZ","latitude":"50.23382000","longitude":"12.71748000"},{"id":23456,"name":"Žlutice","state_id":4581,"state_code":"41","country_id":58,"country_code":"CZ","latitude":"50.09192000","longitude":"13.16297000"},{"id":22114,"name":"Batelov","state_id":4575,"state_code":"63","country_id":58,"country_code":"CZ","latitude":"49.31425000","longitude":"15.39465000"},{"id":22138,"name":"Bohdalov","state_id":4575,"state_code":"63","country_id":58,"country_code":"CZ","latitude":"49.47921000","longitude":"15.87582000"},{"id":22170,"name":"Brtnice","state_id":4575,"state_code":"63","country_id":58,"country_code":"CZ","latitude":"49.30695000","longitude":"15.67642000"},{"id":22175,"name":"Budišov","state_id":4575,"state_code":"63","country_id":58,"country_code":"CZ","latitude":"49.27138000","longitude":"16.00383000"},{"id":22187,"name":"Bystřice nad Pernštejnem","state_id":4575,"state_code":"63","country_id":58,"country_code":"CZ","latitude":"49.52295000","longitude":"16.26147000"},{"id":23371,"name":"Černovice","state_id":4575,"state_code":"63","country_id":58,"country_code":"CZ","latitude":"49.37265000","longitude":"14.96089000"},{"id":22228,"name":"Chotěboř","state_id":4575,"state_code":"63","country_id":58,"country_code":"CZ","latitude":"49.72072000","longitude":"15.67018000"},{"id":22259,"name":"Dobronín","state_id":4575,"state_code":"63","country_id":58,"country_code":"CZ","latitude":"49.47833000","longitude":"15.64992000"},{"id":22279,"name":"Dolní Cerekev","state_id":4575,"state_code":"63","country_id":58,"country_code":"CZ","latitude":"49.34449000","longitude":"15.45655000"},{"id":22335,"name":"Golčův Jeníkov","state_id":4575,"state_code":"63","country_id":58,"country_code":"CZ","latitude":"49.81626000","longitude":"15.47686000"},{"id":22338,"name":"Habry","state_id":4575,"state_code":"63","country_id":58,"country_code":"CZ","latitude":"49.75603000","longitude":"15.48486000"},{"id":22344,"name":"Havlíčkův Brod","state_id":4575,"state_code":"63","country_id":58,"country_code":"CZ","latitude":"49.60690000","longitude":"15.57937000"},{"id":22349,"name":"Herálec","state_id":4575,"state_code":"63","country_id":58,"country_code":"CZ","latitude":"49.68891000","longitude":"15.99431000"},{"id":22379,"name":"Horní Cerekev","state_id":4575,"state_code":"63","country_id":58,"country_code":"CZ","latitude":"49.32026000","longitude":"15.32769000"},{"id":22423,"name":"Hrotovice","state_id":4575,"state_code":"63","country_id":58,"country_code":"CZ","latitude":"49.10770000","longitude":"16.06067000"},{"id":22435,"name":"Humpolec","state_id":4575,"state_code":"63","country_id":58,"country_code":"CZ","latitude":"49.54152000","longitude":"15.35932000"},{"id":22458,"name":"Jaroměřice nad Rokytnou","state_id":4575,"state_code":"63","country_id":58,"country_code":"CZ","latitude":"49.09408000","longitude":"15.89331000"},{"id":22464,"name":"Jemnice","state_id":4575,"state_code":"63","country_id":58,"country_code":"CZ","latitude":"49.01898000","longitude":"15.56994000"},{"id":22471,"name":"Jihlava","state_id":4575,"state_code":"63","country_id":58,"country_code":"CZ","latitude":"49.39610000","longitude":"15.59124000"},{"id":22473,"name":"Jimramov","state_id":4575,"state_code":"63","country_id":58,"country_code":"CZ","latitude":"49.63719000","longitude":"16.22632000"},{"id":22488,"name":"Kamenice","state_id":4575,"state_code":"63","country_id":58,"country_code":"CZ","latitude":"49.36659000","longitude":"15.78023000"},{"id":22490,"name":"Kamenice nad Lipou","state_id":4575,"state_code":"63","country_id":58,"country_code":"CZ","latitude":"49.30303000","longitude":"15.07519000"},{"id":22521,"name":"Kněžice","state_id":4575,"state_code":"63","country_id":58,"country_code":"CZ","latitude":"49.27078000","longitude":"15.67216000"},{"id":22588,"name":"Křižanov","state_id":4575,"state_code":"63","country_id":58,"country_code":"CZ","latitude":"49.38858000","longitude":"16.10960000"},{"id":22589,"name":"Křížová","state_id":4575,"state_code":"63","country_id":58,"country_code":"CZ","latitude":"49.68841000","longitude":"15.85207000"},{"id":22593,"name":"Ledeč nad Sázavou","state_id":4575,"state_code":"63","country_id":58,"country_code":"CZ","latitude":"49.69517000","longitude":"15.27772000"},{"id":22667,"name":"Lípa","state_id":4575,"state_code":"63","country_id":58,"country_code":"CZ","latitude":"49.55418000","longitude":"15.54465000"},{"id":22647,"name":"Luka nad Jihlavou","state_id":4575,"state_code":"63","country_id":58,"country_code":"CZ","latitude":"49.37403000","longitude":"15.70194000"},{"id":22648,"name":"Lukavec","state_id":4575,"state_code":"63","country_id":58,"country_code":"CZ","latitude":"49.56541000","longitude":"14.99041000"},{"id":22746,"name":"Měřín","state_id":4575,"state_code":"63","country_id":58,"country_code":"CZ","latitude":"49.39321000","longitude":"15.88381000"},{"id":22711,"name":"Mohelno","state_id":4575,"state_code":"63","country_id":58,"country_code":"CZ","latitude":"49.11412000","longitude":"16.19022000"},{"id":22719,"name":"Moravské Budějovice","state_id":4575,"state_code":"63","country_id":58,"country_code":"CZ","latitude":"49.05209000","longitude":"15.80864000"},{"id":22795,"name":"Náměšť nad Oslavou","state_id":4575,"state_code":"63","country_id":58,"country_code":"CZ","latitude":"49.20726000","longitude":"16.15849000"},{"id":22773,"name":"Nová Cerekev","state_id":4575,"state_code":"63","country_id":58,"country_code":"CZ","latitude":"49.41723000","longitude":"15.11675000"},{"id":22778,"name":"Nové Město na Moravě","state_id":4575,"state_code":"63","country_id":58,"country_code":"CZ","latitude":"49.56144000","longitude":"16.07418000"},{"id":22783,"name":"Nové Syrovice","state_id":4575,"state_code":"63","country_id":58,"country_code":"CZ","latitude":"49.01763000","longitude":"15.77345000"},{"id":22784,"name":"Nové Veselí","state_id":4575,"state_code":"63","country_id":58,"country_code":"CZ","latitude":"49.51976000","longitude":"15.90853000"},{"id":22818,"name":"Okres Havlíčkův Brod","state_id":4575,"state_code":"63","country_id":58,"country_code":"CZ","latitude":"49.66667000","longitude":"15.58333000"},{"id":22823,"name":"Okres Jihlava","state_id":4575,"state_code":"63","country_id":58,"country_code":"CZ","latitude":"49.33333000","longitude":"15.58333000"},{"id":22846,"name":"Okres Pelhřimov","state_id":4575,"state_code":"63","country_id":58,"country_code":"CZ","latitude":"49.41667000","longitude":"15.16667000"},{"id":22868,"name":"Okres Třebíč","state_id":4575,"state_code":"63","country_id":58,"country_code":"CZ","latitude":"49.13333000","longitude":"15.93333000"},{"id":22880,"name":"Okres Žďár nad Sázavou","state_id":4575,"state_code":"63","country_id":58,"country_code":"CZ","latitude":"49.50000000","longitude":"16.03333000"},{"id":22882,"name":"Okříšky","state_id":4575,"state_code":"63","country_id":58,"country_code":"CZ","latitude":"49.24539000","longitude":"15.76959000"},{"id":22881,"name":"Okrouhlice","state_id":4575,"state_code":"63","country_id":58,"country_code":"CZ","latitude":"49.62991000","longitude":"15.49083000"},{"id":22917,"name":"Pacov","state_id":4575,"state_code":"63","country_id":58,"country_code":"CZ","latitude":"49.47076000","longitude":"15.00168000"},{"id":22925,"name":"Pelhřimov","state_id":4575,"state_code":"63","country_id":58,"country_code":"CZ","latitude":"49.43134000","longitude":"15.22336000"},{"id":22965,"name":"Počátky","state_id":4575,"state_code":"63","country_id":58,"country_code":"CZ","latitude":"49.26020000","longitude":"15.24022000"},{"id":22953,"name":"Polná","state_id":4575,"state_code":"63","country_id":58,"country_code":"CZ","latitude":"49.48700000","longitude":"15.71881000"},{"id":23004,"name":"Přibyslav","state_id":4575,"state_code":"63","country_id":58,"country_code":"CZ","latitude":"49.57684000","longitude":"15.73855000"},{"id":23037,"name":"Rouchovany","state_id":4575,"state_code":"63","country_id":58,"country_code":"CZ","latitude":"49.07036000","longitude":"16.10760000"},{"id":23115,"name":"Stařeč","state_id":4575,"state_code":"63","country_id":58,"country_code":"CZ","latitude":"49.19783000","longitude":"15.82791000"},{"id":23421,"name":"Štoky","state_id":4575,"state_code":"63","country_id":58,"country_code":"CZ","latitude":"49.50249000","longitude":"15.58863000"},{"id":23153,"name":"Světlá nad Sázavou","state_id":4575,"state_code":"63","country_id":58,"country_code":"CZ","latitude":"49.66801000","longitude":"15.40393000"},{"id":23152,"name":"Svratka","state_id":4575,"state_code":"63","country_id":58,"country_code":"CZ","latitude":"49.71066000","longitude":"16.03214000"},{"id":23159,"name":"Telč","state_id":4575,"state_code":"63","country_id":58,"country_code":"CZ","latitude":"49.18418000","longitude":"15.45275000"},{"id":23201,"name":"Třebíč","state_id":4575,"state_code":"63","country_id":58,"country_code":"CZ","latitude":"49.21492000","longitude":"15.88166000"},{"id":23204,"name":"Třešť","state_id":4575,"state_code":"63","country_id":58,"country_code":"CZ","latitude":"49.29092000","longitude":"15.48211000"},{"id":23231,"name":"Velká Bíteš","state_id":4575,"state_code":"63","country_id":58,"country_code":"CZ","latitude":"49.28838000","longitude":"16.22742000"},{"id":23243,"name":"Velké Meziříčí","state_id":4575,"state_code":"63","country_id":58,"country_code":"CZ","latitude":"49.35522000","longitude":"16.01224000"},{"id":23251,"name":"Velký Beranov","state_id":4575,"state_code":"63","country_id":58,"country_code":"CZ","latitude":"49.40504000","longitude":"15.66700000"},{"id":23270,"name":"Vilémov","state_id":4575,"state_code":"63","country_id":58,"country_code":"CZ","latitude":"49.81566000","longitude":"15.53584000"},{"id":23280,"name":"Vladislav","state_id":4575,"state_code":"63","country_id":58,"country_code":"CZ","latitude":"49.21017000","longitude":"15.98830000"},{"id":23459,"name":"Žďár nad Sázavou","state_id":4575,"state_code":"63","country_id":58,"country_code":"CZ","latitude":"49.56263000","longitude":"15.93924000"},{"id":23460,"name":"Žďár nad Sázavou Druhy","state_id":4575,"state_code":"63","country_id":58,"country_code":"CZ","latitude":"49.58726000","longitude":"15.93215000"},{"id":23442,"name":"Želetava","state_id":4575,"state_code":"63","country_id":58,"country_code":"CZ","latitude":"49.14187000","longitude":"15.67300000"},{"id":23447,"name":"Želiv","state_id":4575,"state_code":"63","country_id":58,"country_code":"CZ","latitude":"49.52984000","longitude":"15.22181000"},{"id":23451,"name":"Žirovnice","state_id":4575,"state_code":"63","country_id":58,"country_code":"CZ","latitude":"49.25318000","longitude":"15.18824000"},{"id":22109,"name":"Albrechtice nad Orlicí","state_id":4614,"state_code":"52","country_id":58,"country_code":"CZ","latitude":"50.13979000","longitude":"16.06437000"},{"id":22198,"name":"Bílá Třemešná","state_id":4614,"state_code":"52","country_id":58,"country_code":"CZ","latitude":"50.44465000","longitude":"15.74101000"},{"id":22148,"name":"Borohrádek","state_id":4614,"state_code":"52","country_id":58,"country_code":"CZ","latitude":"50.09777000","longitude":"16.09326000"},{"id":22169,"name":"Broumov","state_id":4614,"state_code":"52","country_id":58,"country_code":"CZ","latitude":"50.58566000","longitude":"16.33181000"},{"id":23362,"name":"Častolovice","state_id":4614,"state_code":"52","country_id":58,"country_code":"CZ","latitude":"50.12910000","longitude":"16.18128000"},{"id":23370,"name":"Černilov","state_id":4614,"state_code":"52","country_id":58,"country_code":"CZ","latitude":"50.26265000","longitude":"15.92254000"},{"id":23374,"name":"Černožice","state_id":4614,"state_code":"52","country_id":58,"country_code":"CZ","latitude":"50.31863000","longitude":"15.87403000"},{"id":23381,"name":"Červený Kostelec","state_id":4614,"state_code":"52","country_id":58,"country_code":"CZ","latitude":"50.47626000","longitude":"16.09289000"},{"id":23385,"name":"Česká Skalice","state_id":4614,"state_code":"52","country_id":58,"country_code":"CZ","latitude":"50.39467000","longitude":"16.04276000"},{"id":23389,"name":"České Meziříčí","state_id":4614,"state_code":"52","country_id":58,"country_code":"CZ","latitude":"50.28680000","longitude":"16.04428000"},{"id":22221,"name":"Chlumec nad Cidlinou","state_id":4614,"state_code":"52","country_id":58,"country_code":"CZ","latitude":"50.15440000","longitude":"15.46026000"},{"id":22261,"name":"Dobruška","state_id":4614,"state_code":"52","country_id":58,"country_code":"CZ","latitude":"50.29201000","longitude":"16.16001000"},{"id":22298,"name":"Dolní Černilov","state_id":4614,"state_code":"52","country_id":58,"country_code":"CZ","latitude":"50.26110000","longitude":"15.96107000"},{"id":22306,"name":"Doudleby nad Orlicí","state_id":4614,"state_code":"52","country_id":58,"country_code":"CZ","latitude":"50.10742000","longitude":"16.26131000"},{"id":22319,"name":"Dvůr Králové nad Labem","state_id":4614,"state_code":"52","country_id":58,"country_code":"CZ","latitude":"50.43172000","longitude":"15.81402000"},{"id":22407,"name":"Hořice","state_id":4614,"state_code":"52","country_id":58,"country_code":"CZ","latitude":"50.36609000","longitude":"15.63183000"},{"id":22398,"name":"Hostinné","state_id":4614,"state_code":"52","country_id":58,"country_code":"CZ","latitude":"50.54066000","longitude":"15.72334000"},{"id":22412,"name":"Hradec Králové","state_id":4614,"state_code":"52","country_id":58,"country_code":"CZ","latitude":"50.20923000","longitude":"15.83277000"},{"id":22422,"name":"Hronov","state_id":4614,"state_code":"52","country_id":58,"country_code":"CZ","latitude":"50.47968000","longitude":"16.18230000"},{"id":22456,"name":"Jaroměř","state_id":4614,"state_code":"52","country_id":58,"country_code":"CZ","latitude":"50.35620000","longitude":"15.92136000"},{"id":22481,"name":"Jičín","state_id":4614,"state_code":"52","country_id":58,"country_code":"CZ","latitude":"50.43723000","longitude":"15.35162000"},{"id":22533,"name":"Kopidlno","state_id":4614,"state_code":"52","country_id":58,"country_code":"CZ","latitude":"50.33085000","longitude":"15.27029000"},{"id":22540,"name":"Kostelec nad Orlicí","state_id":4614,"state_code":"52","country_id":58,"country_code":"CZ","latitude":"50.12267000","longitude":"16.21319000"},{"id":22579,"name":"Kvasiny","state_id":4614,"state_code":"52","country_id":58,"country_code":"CZ","latitude":"50.21250000","longitude":"16.26323000"},{"id":22663,"name":"Lázně Bělohrad","state_id":4614,"state_code":"52","country_id":58,"country_code":"CZ","latitude":"50.42874000","longitude":"15.58269000"},{"id":22611,"name":"Libáň","state_id":4614,"state_code":"52","country_id":58,"country_code":"CZ","latitude":"50.37542000","longitude":"15.21684000"},{"id":22668,"name":"Machov","state_id":4614,"state_code":"52","country_id":58,"country_code":"CZ","latitude":"50.49927000","longitude":"16.27690000"},{"id":22673,"name":"Malé Svatoňovice","state_id":4614,"state_code":"52","country_id":58,"country_code":"CZ","latitude":"50.53395000","longitude":"16.04978000"},{"id":22684,"name":"Meziměstí","state_id":4614,"state_code":"52","country_id":58,"country_code":"CZ","latitude":"50.62461000","longitude":"16.24207000"},{"id":22703,"name":"Mladé Buky","state_id":4614,"state_code":"52","country_id":58,"country_code":"CZ","latitude":"50.60643000","longitude":"15.83348000"},{"id":22726,"name":"Mostek","state_id":4614,"state_code":"52","country_id":58,"country_code":"CZ","latitude":"50.48623000","longitude":"15.69622000"},{"id":22792,"name":"Náchod","state_id":4614,"state_code":"52","country_id":58,"country_code":"CZ","latitude":"50.41670000","longitude":"16.16289000"},{"id":22752,"name":"Nechanice","state_id":4614,"state_code":"52","country_id":58,"country_code":"CZ","latitude":"50.23737000","longitude":"15.63276000"},{"id":22774,"name":"Nová Paka","state_id":4614,"state_code":"52","country_id":58,"country_code":"CZ","latitude":"50.49449000","longitude":"15.51503000"},{"id":22779,"name":"Nové Město nad Metují","state_id":4614,"state_code":"52","country_id":58,"country_code":"CZ","latitude":"50.34456000","longitude":"16.15147000"},{"id":22786,"name":"Nový Bydžov","state_id":4614,"state_code":"52","country_id":58,"country_code":"CZ","latitude":"50.24150000","longitude":"15.49082000"},{"id":22820,"name":"Okres Hradec Králové","state_id":4614,"state_code":"52","country_id":58,"country_code":"CZ","latitude":"50.25000000","longitude":"15.66667000"},{"id":22825,"name":"Okres Jičín","state_id":4614,"state_code":"52","country_id":58,"country_code":"CZ","latitude":"50.41667000","longitude":"15.41667000"},{"id":22841,"name":"Okres Náchod","state_id":4614,"state_code":"52","country_id":58,"country_code":"CZ","latitude":"50.41667000","longitude":"16.16667000"},{"id":22859,"name":"Okres Rychnov nad Kněžnou","state_id":4614,"state_code":"52","country_id":58,"country_code":"CZ","latitude":"50.23333000","longitude":"16.28333000"},{"id":22866,"name":"Okres Trutnov","state_id":4614,"state_code":"52","country_id":58,"country_code":"CZ","latitude":"50.58333000","longitude":"15.83333000"},{"id":22894,"name":"Opočno","state_id":4614,"state_code":"52","country_id":58,"country_code":"CZ","latitude":"50.26742000","longitude":"16.11480000"},{"id":22906,"name":"Ostroměř","state_id":4614,"state_code":"52","country_id":58,"country_code":"CZ","latitude":"50.37246000","longitude":"15.54949000"},{"id":22924,"name":"Pecka","state_id":4614,"state_code":"52","country_id":58,"country_code":"CZ","latitude":"50.48034000","longitude":"15.60822000"},{"id":22933,"name":"Pilníkov","state_id":4614,"state_code":"52","country_id":58,"country_code":"CZ","latitude":"50.53247000","longitude":"15.82020000"},{"id":22951,"name":"Police nad Metují","state_id":4614,"state_code":"52","country_id":58,"country_code":"CZ","latitude":"50.53687000","longitude":"16.23350000"},{"id":22998,"name":"Předměřice nad Labem","state_id":4614,"state_code":"52","country_id":58,"country_code":"CZ","latitude":"50.25633000","longitude":"15.81556000"},{"id":22983,"name":"Provodov-Šonov","state_id":4614,"state_code":"52","country_id":58,"country_code":"CZ","latitude":"50.38711000","longitude":"16.10797000"},{"id":23016,"name":"Radvanice","state_id":4614,"state_code":"52","country_id":58,"country_code":"CZ","latitude":"50.56745000","longitude":"16.06172000"},{"id":23031,"name":"Rokytnice v Orlických Horách","state_id":4614,"state_code":"52","country_id":58,"country_code":"CZ","latitude":"50.16473000","longitude":"16.46567000"},{"id":23045,"name":"Rtyně v Podkrkonoší","state_id":4614,"state_code":"52","country_id":58,"country_code":"CZ","latitude":"50.50523000","longitude":"16.07187000"},{"id":23048,"name":"Rudník","state_id":4614,"state_code":"52","country_id":58,"country_code":"CZ","latitude":"50.59517000","longitude":"15.73362000"},{"id":23053,"name":"Rychnov nad Kněžnou","state_id":4614,"state_code":"52","country_id":58,"country_code":"CZ","latitude":"50.16284000","longitude":"16.27488000"},{"id":23075,"name":"Skuhrov nad Bělou","state_id":4614,"state_code":"52","country_id":58,"country_code":"CZ","latitude":"50.22946000","longitude":"16.29230000"},{"id":23086,"name":"Smidary","state_id":4614,"state_code":"52","country_id":58,"country_code":"CZ","latitude":"50.29146000","longitude":"15.47725000"},{"id":23087,"name":"Smiřice","state_id":4614,"state_code":"52","country_id":58,"country_code":"CZ","latitude":"50.29978000","longitude":"15.86508000"},{"id":23090,"name":"Sobotka","state_id":4614,"state_code":"52","country_id":58,"country_code":"CZ","latitude":"50.46741000","longitude":"15.17619000"},{"id":23095,"name":"Solnice","state_id":4614,"state_code":"52","country_id":58,"country_code":"CZ","latitude":"50.20366000","longitude":"16.23762000"},{"id":23419,"name":"Špindlerův Mlýn","state_id":4614,"state_code":"52","country_id":58,"country_code":"CZ","latitude":"50.72615000","longitude":"15.60944000"},{"id":23101,"name":"Stará Paka","state_id":4614,"state_code":"52","country_id":58,"country_code":"CZ","latitude":"50.51032000","longitude":"15.49444000"},{"id":23109,"name":"Staré Nechanice","state_id":4614,"state_code":"52","country_id":58,"country_code":"CZ","latitude":"50.24298000","longitude":"15.61787000"},{"id":23136,"name":"Stěžery","state_id":4614,"state_code":"52","country_id":58,"country_code":"CZ","latitude":"50.21572000","longitude":"15.74831000"},{"id":23151,"name":"Svoboda nad Úpou","state_id":4614,"state_code":"52","country_id":58,"country_code":"CZ","latitude":"50.62596000","longitude":"15.81648000"},{"id":23161,"name":"Teplice nad Metují","state_id":4614,"state_code":"52","country_id":58,"country_code":"CZ","latitude":"50.59332000","longitude":"16.17026000"},{"id":23197,"name":"Třebechovice pod Orebem","state_id":4614,"state_code":"52","country_id":58,"country_code":"CZ","latitude":"50.20097000","longitude":"15.99223000"},{"id":23181,"name":"Trutnov","state_id":4614,"state_code":"52","country_id":58,"country_code":"CZ","latitude":"50.56101000","longitude":"15.91270000"},{"id":23194,"name":"Týniště nad Orlicí","state_id":4614,"state_code":"52","country_id":58,"country_code":"CZ","latitude":"50.15136000","longitude":"16.07770000"},{"id":23357,"name":"Úpice","state_id":4614,"state_code":"52","country_id":58,"country_code":"CZ","latitude":"50.51237000","longitude":"16.01607000"},{"id":23219,"name":"Valdice","state_id":4614,"state_code":"52","country_id":58,"country_code":"CZ","latitude":"50.45501000","longitude":"15.38488000"},{"id":23222,"name":"Vamberk","state_id":4614,"state_code":"52","country_id":58,"country_code":"CZ","latitude":"50.11756000","longitude":"16.29067000"},{"id":23248,"name":"Velké Poříčí","state_id":4614,"state_code":"52","country_id":58,"country_code":"CZ","latitude":"50.46177000","longitude":"16.18931000"},{"id":23250,"name":"Velké Svatoňovice","state_id":4614,"state_code":"52","country_id":58,"country_code":"CZ","latitude":"50.53164000","longitude":"16.02853000"},{"id":23300,"name":"Vrchlabí","state_id":4614,"state_code":"52","country_id":58,"country_code":"CZ","latitude":"50.62697000","longitude":"15.60937000"},{"id":23320,"name":"Všestary","state_id":4614,"state_code":"52","country_id":58,"country_code":"CZ","latitude":"50.25660000","longitude":"15.75983000"},{"id":23436,"name":"Žacléř","state_id":4614,"state_code":"52","country_id":58,"country_code":"CZ","latitude":"50.66329000","longitude":"15.91063000"},{"id":23323,"name":"Zadní Mostek","state_id":4614,"state_code":"52","country_id":58,"country_code":"CZ","latitude":"50.49670000","longitude":"15.69804000"},{"id":23443,"name":"Železnice","state_id":4614,"state_code":"52","country_id":58,"country_code":"CZ","latitude":"50.47274000","longitude":"15.38459000"},{"id":22120,"name":"Benecko","state_id":4601,"state_code":"51","country_id":58,"country_code":"CZ","latitude":"50.66633000","longitude":"15.54816000"},{"id":22165,"name":"Brniště","state_id":4601,"state_code":"51","country_id":58,"country_code":"CZ","latitude":"50.72919000","longitude":"14.70338000"},{"id":23384,"name":"Česká Lípa","state_id":4601,"state_code":"51","country_id":58,"country_code":"CZ","latitude":"50.68551000","longitude":"14.53764000"},{"id":23392,"name":"Český Dub","state_id":4601,"state_code":"51","country_id":58,"country_code":"CZ","latitude":"50.66054000","longitude":"14.99617000"},{"id":22232,"name":"Chrastava","state_id":4601,"state_code":"51","country_id":58,"country_code":"CZ","latitude":"50.81693000","longitude":"14.96884000"},{"id":22245,"name":"Cvikov","state_id":4601,"state_code":"51","country_id":58,"country_code":"CZ","latitude":"50.77668000","longitude":"14.63298000"},{"id":22254,"name":"Desná","state_id":4601,"state_code":"51","country_id":58,"country_code":"CZ","latitude":"50.75987000","longitude":"15.30284000"},{"id":22269,"name":"Doksy","state_id":4601,"state_code":"51","country_id":58,"country_code":"CZ","latitude":"50.56471000","longitude":"14.65553000"},{"id":22314,"name":"Dubá","state_id":4601,"state_code":"51","country_id":58,"country_code":"CZ","latitude":"50.54034000","longitude":"14.54023000"},{"id":22332,"name":"Frýdlant","state_id":4601,"state_code":"51","country_id":58,"country_code":"CZ","latitude":"50.92139000","longitude":"15.07974000"},{"id":22342,"name":"Harrachov","state_id":4601,"state_code":"51","country_id":58,"country_code":"CZ","latitude":"50.77209000","longitude":"15.43141000"},{"id":22348,"name":"Hejnice","state_id":4601,"state_code":"51","country_id":58,"country_code":"CZ","latitude":"50.87720000","longitude":"15.18168000"},{"id":22362,"name":"Hodkovice nad Mohelkou","state_id":4601,"state_code":"51","country_id":58,"country_code":"CZ","latitude":"50.66586000","longitude":"15.08985000"},{"id":22377,"name":"Horní Branná","state_id":4601,"state_code":"51","country_id":58,"country_code":"CZ","latitude":"50.60826000","longitude":"15.57146000"},{"id":22431,"name":"Hrádek nad Nisou","state_id":4601,"state_code":"51","country_id":58,"country_code":"CZ","latitude":"50.85279000","longitude":"14.84455000"},{"id":22445,"name":"Jablonec nad Jizerou","state_id":4601,"state_code":"51","country_id":58,"country_code":"CZ","latitude":"50.70347000","longitude":"15.42959000"},{"id":22446,"name":"Jablonec nad Nisou","state_id":4601,"state_code":"51","country_id":58,"country_code":"CZ","latitude":"50.72431000","longitude":"15.17108000"},{"id":22448,"name":"Jablonné v Podještědí","state_id":4601,"state_code":"51","country_id":58,"country_code":"CZ","latitude":"50.76528000","longitude":"14.76052000"},{"id":22453,"name":"Janov nad Nisou","state_id":4601,"state_code":"51","country_id":58,"country_code":"CZ","latitude":"50.77204000","longitude":"15.16913000"},{"id":22472,"name":"Jilemnice","state_id":4601,"state_code":"51","country_id":58,"country_code":"CZ","latitude":"50.60890000","longitude":"15.50653000"},{"id":22483,"name":"Josefův Důl","state_id":4601,"state_code":"51","country_id":58,"country_code":"CZ","latitude":"50.78191000","longitude":"15.23146000"},{"id":22491,"name":"Kamenický Šenov","state_id":4601,"state_code":"51","country_id":58,"country_code":"CZ","latitude":"50.77359000","longitude":"14.47287000"},{"id":22549,"name":"Kořenov","state_id":4601,"state_code":"51","country_id":58,"country_code":"CZ","latitude":"50.75926000","longitude":"15.36532000"},{"id":22551,"name":"Košťálov","state_id":4601,"state_code":"51","country_id":58,"country_code":"CZ","latitude":"50.57165000","longitude":"15.40403000"},{"id":22604,"name":"Liberec","state_id":4601,"state_code":"51","country_id":58,"country_code":"CZ","latitude":"50.76711000","longitude":"15.05619000"},{"id":22635,"name":"Lomnice nad Popelkou","state_id":4601,"state_code":"51","country_id":58,"country_code":"CZ","latitude":"50.53062000","longitude":"15.37341000"},{"id":22652,"name":"Lučany nad Nisou","state_id":4601,"state_code":"51","country_id":58,"country_code":"CZ","latitude":"50.74136000","longitude":"15.22046000"},{"id":22671,"name":"Malá Skála","state_id":4601,"state_code":"51","country_id":58,"country_code":"CZ","latitude":"50.64631000","longitude":"15.19543000"},{"id":22694,"name":"Mimoň","state_id":4601,"state_code":"51","country_id":58,"country_code":"CZ","latitude":"50.65869000","longitude":"14.72474000"},{"id":22706,"name":"Mníšek","state_id":4601,"state_code":"51","country_id":58,"country_code":"CZ","latitude":"50.83163000","longitude":"15.05630000"},{"id":22780,"name":"Nové Město pod Smrkem","state_id":4601,"state_code":"51","country_id":58,"country_code":"CZ","latitude":"50.92491000","longitude":"15.22943000"},{"id":22785,"name":"Nový Bor","state_id":4601,"state_code":"51","country_id":58,"country_code":"CZ","latitude":"50.75761000","longitude":"14.55555000"},{"id":22805,"name":"Ohrazenice","state_id":4601,"state_code":"51","country_id":58,"country_code":"CZ","latitude":"50.59765000","longitude":"15.12596000"},{"id":22876,"name":"Okres Česká Lípa","state_id":4601,"state_code":"51","country_id":58,"country_code":"CZ","latitude":"50.66667000","longitude":"14.66667000"},{"id":22821,"name":"Okres Jablonec nad Nisou","state_id":4601,"state_code":"51","country_id":58,"country_code":"CZ","latitude":"50.75000000","longitude":"15.25000000"},{"id":22833,"name":"Okres Liberec","state_id":4601,"state_code":"51","country_id":58,"country_code":"CZ","latitude":"50.83333000","longitude":"15.08333000"},{"id":22860,"name":"Okres Semily","state_id":4601,"state_code":"51","country_id":58,"country_code":"CZ","latitude":"50.61667000","longitude":"15.41667000"},{"id":22899,"name":"Osečná","state_id":4601,"state_code":"51","country_id":58,"country_code":"CZ","latitude":"50.69489000","longitude":"14.92138000"},{"id":22996,"name":"Pěnčín","state_id":4601,"state_code":"51","country_id":58,"country_code":"CZ","latitude":"50.68769000","longitude":"15.23593000"},{"id":22938,"name":"Plavy","state_id":4601,"state_code":"51","country_id":58,"country_code":"CZ","latitude":"50.70324000","longitude":"15.31736000"},{"id":22955,"name":"Poniklá","state_id":4601,"state_code":"51","country_id":58,"country_code":"CZ","latitude":"50.66152000","longitude":"15.46329000"},{"id":23010,"name":"Příšovice","state_id":4601,"state_code":"51","country_id":58,"country_code":"CZ","latitude":"50.57813000","longitude":"15.08390000"},{"id":23022,"name":"Raspenava","state_id":4601,"state_code":"51","country_id":58,"country_code":"CZ","latitude":"50.90415000","longitude":"15.11465000"},{"id":23030,"name":"Rokytnice nad Jizerou","state_id":4601,"state_code":"51","country_id":58,"country_code":"CZ","latitude":"50.72561000","longitude":"15.43357000"},{"id":23040,"name":"Rovensko pod Troskami","state_id":4601,"state_code":"51","country_id":58,"country_code":"CZ","latitude":"50.53532000","longitude":"15.25941000"},{"id":23067,"name":"Semily","state_id":4601,"state_code":"51","country_id":58,"country_code":"CZ","latitude":"50.60191000","longitude":"15.33552000"},{"id":23089,"name":"Smržovka","state_id":4601,"state_code":"51","country_id":58,"country_code":"CZ","latitude":"50.73820000","longitude":"15.24639000"},{"id":23127,"name":"Stráž nad Nisou","state_id":4601,"state_code":"51","country_id":58,"country_code":"CZ","latitude":"50.79099000","longitude":"15.02683000"},{"id":23128,"name":"Stráž pod Ralskem","state_id":4601,"state_code":"51","country_id":58,"country_code":"CZ","latitude":"50.70280000","longitude":"14.80102000"},{"id":23132,"name":"Studenec","state_id":4601,"state_code":"51","country_id":58,"country_code":"CZ","latitude":"50.55344000","longitude":"15.54936000"},{"id":23156,"name":"Tanvald","state_id":4601,"state_code":"51","country_id":58,"country_code":"CZ","latitude":"50.73735000","longitude":"15.30585000"},{"id":23186,"name":"Turnov","state_id":4601,"state_code":"51","country_id":58,"country_code":"CZ","latitude":"50.58356000","longitude":"15.15186000"},{"id":23220,"name":"Valdice","state_id":4601,"state_code":"51","country_id":58,"country_code":"CZ","latitude":"50.58350000","longitude":"15.41248000"},{"id":23238,"name":"Velké Hamry","state_id":4601,"state_code":"51","country_id":58,"country_code":"CZ","latitude":"50.71373000","longitude":"15.31539000"},{"id":23276,"name":"Višňova","state_id":4601,"state_code":"51","country_id":58,"country_code":"CZ","latitude":"50.96663000","longitude":"15.02495000"},{"id":23306,"name":"Vysoké nad Jizerou","state_id":4601,"state_code":"51","country_id":58,"country_code":"CZ","latitude":"50.68559000","longitude":"15.40152000"},{"id":23350,"name":"Zákupy","state_id":4601,"state_code":"51","country_id":58,"country_code":"CZ","latitude":"50.68475000","longitude":"14.64522000"},{"id":23438,"name":"Žandov","state_id":4601,"state_code":"51","country_id":58,"country_code":"CZ","latitude":"50.71394000","longitude":"14.39623000"},{"id":23445,"name":"Železný Brod","state_id":4601,"state_code":"51","country_id":58,"country_code":"CZ","latitude":"50.64274000","longitude":"15.25408000"},{"id":22108,"name":"Albrechtice","state_id":4600,"state_code":"80","country_id":58,"country_code":"CZ","latitude":"49.78645000","longitude":"18.52444000"},{"id":22113,"name":"Bartošovice","state_id":4600,"state_code":"80","country_id":58,"country_code":"CZ","latitude":"49.66884000","longitude":"18.05461000"},{"id":22116,"name":"Baška","state_id":4600,"state_code":"80","country_id":58,"country_code":"CZ","latitude":"49.64584000","longitude":"18.37233000"},{"id":22194,"name":"Bílovec","state_id":4600,"state_code":"80","country_id":58,"country_code":"CZ","latitude":"49.75639000","longitude":"18.01581000"},{"id":22139,"name":"Bohumín","state_id":4600,"state_code":"80","country_id":58,"country_code":"CZ","latitude":"49.90411000","longitude":"18.35755000"},{"id":22140,"name":"Bohuslavice","state_id":4600,"state_code":"80","country_id":58,"country_code":"CZ","latitude":"49.94232000","longitude":"18.12866000"},{"id":22145,"name":"Bolatice","state_id":4600,"state_code":"80","country_id":58,"country_code":"CZ","latitude":"49.95172000","longitude":"18.08358000"},{"id":22161,"name":"Brantice","state_id":4600,"state_code":"80","country_id":58,"country_code":"CZ","latitude":"50.06351000","longitude":"17.62911000"},{"id":22210,"name":"Březová","state_id":4600,"state_code":"80","country_id":58,"country_code":"CZ","latitude":"49.79158000","longitude":"17.86556000"},{"id":22214,"name":"Břidličná","state_id":4600,"state_code":"80","country_id":58,"country_code":"CZ","latitude":"49.91167000","longitude":"17.37107000"},{"id":22171,"name":"Brumovice","state_id":4600,"state_code":"80","country_id":58,"country_code":"CZ","latitude":"50.01530000","longitude":"17.74958000"},{"id":22172,"name":"Bruntál","state_id":4600,"state_code":"80","country_id":58,"country_code":"CZ","latitude":"49.98844000","longitude":"17.46470000"},{"id":22173,"name":"Brušperk","state_id":4600,"state_code":"80","country_id":58,"country_code":"CZ","latitude":"49.70010000","longitude":"18.22210000"},{"id":22176,"name":"Budišov nad Budišovkou","state_id":4600,"state_code":"80","country_id":58,"country_code":"CZ","latitude":"49.79511000","longitude":"17.62969000"},{"id":22179,"name":"Bukovec","state_id":4600,"state_code":"80","country_id":58,"country_code":"CZ","latitude":"49.55114000","longitude":"18.82683000"},{"id":22186,"name":"Bystřice","state_id":4600,"state_code":"80","country_id":58,"country_code":"CZ","latitude":"49.63657000","longitude":"18.72038000"},{"id":23367,"name":"Čeladná","state_id":4600,"state_code":"80","country_id":58,"country_code":"CZ","latitude":"49.54873000","longitude":"18.33759000"},{"id":23395,"name":"Český Těšín","state_id":4600,"state_code":"80","country_id":58,"country_code":"CZ","latitude":"49.74613000","longitude":"18.62613000"},{"id":22218,"name":"Chlebičov","state_id":4600,"state_code":"80","country_id":58,"country_code":"CZ","latitude":"49.95942000","longitude":"17.96748000"},{"id":22229,"name":"Chotěbuz","state_id":4600,"state_code":"80","country_id":58,"country_code":"CZ","latitude":"49.76849000","longitude":"18.56912000"},{"id":22237,"name":"Chuchelná","state_id":4600,"state_code":"80","country_id":58,"country_code":"CZ","latitude":"49.98664000","longitude":"18.11656000"},{"id":22250,"name":"Darkovice","state_id":4600,"state_code":"80","country_id":58,"country_code":"CZ","latitude":"49.93592000","longitude":"18.22213000"},{"id":22321,"name":"Dětmarovice","state_id":4600,"state_code":"80","country_id":58,"country_code":"CZ","latitude":"49.89412000","longitude":"18.46079000"},{"id":22262,"name":"Dobrá","state_id":4600,"state_code":"80","country_id":58,"country_code":"CZ","latitude":"49.67383000","longitude":"18.41393000"},{"id":22257,"name":"Dobratice","state_id":4600,"state_code":"80","country_id":58,"country_code":"CZ","latitude":"49.66039000","longitude":"18.49226000"},{"id":22271,"name":"Dolní Benešov","state_id":4600,"state_code":"80","country_id":58,"country_code":"CZ","latitude":"49.92101000","longitude":"18.10835000"},{"id":22284,"name":"Dolní Lhota","state_id":4600,"state_code":"80","country_id":58,"country_code":"CZ","latitude":"49.84236000","longitude":"18.09241000"},{"id":22286,"name":"Dolní Lutyně","state_id":4600,"state_code":"80","country_id":58,"country_code":"CZ","latitude":"49.89876000","longitude":"18.42815000"},{"id":22300,"name":"Dolní Životice","state_id":4600,"state_code":"80","country_id":58,"country_code":"CZ","latitude":"49.89732000","longitude":"17.77969000"},{"id":22304,"name":"Doubrava","state_id":4600,"state_code":"80","country_id":58,"country_code":"CZ","latitude":"49.85873000","longitude":"18.48018000"},{"id":22318,"name":"Dvorce","state_id":4600,"state_code":"80","country_id":58,"country_code":"CZ","latitude":"49.83332000","longitude":"17.54762000"},{"id":22327,"name":"Frenštát pod Radhoštěm","state_id":4600,"state_code":"80","country_id":58,"country_code":"CZ","latitude":"49.54835000","longitude":"18.21078000"},{"id":22329,"name":"Fryčovice","state_id":4600,"state_code":"80","country_id":58,"country_code":"CZ","latitude":"49.66677000","longitude":"18.22321000"},{"id":22331,"name":"Frýdek-Místek","state_id":4600,"state_code":"80","country_id":58,"country_code":"CZ","latitude":"49.68333000","longitude":"18.35000000"},{"id":22333,"name":"Frýdlant nad Ostravicí","state_id":4600,"state_code":"80","country_id":58,"country_code":"CZ","latitude":"49.59280000","longitude":"18.35967000"},{"id":22334,"name":"Fulnek","state_id":4600,"state_code":"80","country_id":58,"country_code":"CZ","latitude":"49.71238000","longitude":"17.90319000"},{"id":22440,"name":"Háj ve Slezsku","state_id":4600,"state_code":"80","country_id":58,"country_code":"CZ","latitude":"49.89856000","longitude":"18.09540000"},{"id":22347,"name":"Hať","state_id":4600,"state_code":"80","country_id":58,"country_code":"CZ","latitude":"49.94644000","longitude":"18.23931000"},{"id":22345,"name":"Havířov","state_id":4600,"state_code":"80","country_id":58,"country_code":"CZ","latitude":"49.77984000","longitude":"18.43688000"},{"id":22358,"name":"Hlučín","state_id":4600,"state_code":"80","country_id":58,"country_code":"CZ","latitude":"49.89795000","longitude":"18.19196000"},{"id":22361,"name":"Hněvošice","state_id":4600,"state_code":"80","country_id":58,"country_code":"CZ","latitude":"50.00299000","longitude":"18.00829000"},{"id":22359,"name":"Hnojník","state_id":4600,"state_code":"80","country_id":58,"country_code":"CZ","latitude":"49.68250000","longitude":"18.54143000"},{"id":22366,"name":"Hodslavice","state_id":4600,"state_code":"80","country_id":58,"country_code":"CZ","latitude":"49.53856000","longitude":"18.02367000"},{"id":22367,"name":"Holasovice","state_id":4600,"state_code":"80","country_id":58,"country_code":"CZ","latitude":"49.99843000","longitude":"17.80847000"},{"id":22374,"name":"Horní Benešov","state_id":4600,"state_code":"80","country_id":58,"country_code":"CZ","latitude":"49.96682000","longitude":"17.60262000"},{"id":22376,"name":"Horní Bludovice","state_id":4600,"state_code":"80","country_id":58,"country_code":"CZ","latitude":"49.74965000","longitude":"18.43677000"},{"id":22384,"name":"Horní Město","state_id":4600,"state_code":"80","country_id":58,"country_code":"CZ","latitude":"49.90845000","longitude":"17.21112000"},{"id":22391,"name":"Horní Suchá","state_id":4600,"state_code":"80","country_id":58,"country_code":"CZ","latitude":"49.79780000","longitude":"18.48189000"},{"id":22392,"name":"Horní Těrlicko","state_id":4600,"state_code":"80","country_id":58,"country_code":"CZ","latitude":"49.75177000","longitude":"18.48290000"},{"id":22411,"name":"Hrabyně","state_id":4600,"state_code":"80","country_id":58,"country_code":"CZ","latitude":"49.88249000","longitude":"18.05483000"},{"id":22413,"name":"Hradec nad Moravici","state_id":4600,"state_code":"80","country_id":58,"country_code":"CZ","latitude":"49.87042000","longitude":"17.87843000"},{"id":22429,"name":"Hrádek","state_id":4600,"state_code":"80","country_id":58,"country_code":"CZ","latitude":"49.61661000","longitude":"18.73720000"},{"id":22433,"name":"Hukvaldy","state_id":4600,"state_code":"80","country_id":58,"country_code":"CZ","latitude":"49.62381000","longitude":"18.22189000"},{"id":22449,"name":"Jablunkov","state_id":4600,"state_code":"80","country_id":58,"country_code":"CZ","latitude":"49.57672000","longitude":"18.76458000"},{"id":22451,"name":"Jakartovice","state_id":4600,"state_code":"80","country_id":58,"country_code":"CZ","latitude":"49.91510000","longitude":"17.68400000"},{"id":22454,"name":"Janovice","state_id":4600,"state_code":"80","country_id":58,"country_code":"CZ","latitude":"49.62141000","longitude":"18.40602000"},{"id":22468,"name":"Jeseník nad Odrou","state_id":4600,"state_code":"80","country_id":58,"country_code":"CZ","latitude":"49.61194000","longitude":"17.90526000"},{"id":22475,"name":"Jindřichov","state_id":4600,"state_code":"80","country_id":58,"country_code":"CZ","latitude":"50.25184000","longitude":"17.51903000"},{"id":22480,"name":"Jistebník","state_id":4600,"state_code":"80","country_id":58,"country_code":"CZ","latitude":"49.75400000","longitude":"18.13063000"},{"id":22497,"name":"Karlovice","state_id":4600,"state_code":"80","country_id":58,"country_code":"CZ","latitude":"50.10564000","longitude":"17.44563000"},{"id":22501,"name":"Karviná","state_id":4600,"state_code":"80","country_id":58,"country_code":"CZ","latitude":"49.85400000","longitude":"18.54169000"},{"id":22515,"name":"Klimkovice","state_id":4600,"state_code":"80","country_id":58,"country_code":"CZ","latitude":"49.78809000","longitude":"18.12585000"},{"id":22524,"name":"Kobeřice","state_id":4600,"state_code":"80","country_id":58,"country_code":"CZ","latitude":"49.98548000","longitude":"18.05212000"},{"id":22530,"name":"Komorní Lhotka","state_id":4600,"state_code":"80","country_id":58,"country_code":"CZ","latitude":"49.65811000","longitude":"18.52777000"},{"id":22534,"name":"Kopřivnice","state_id":4600,"state_code":"80","country_id":58,"country_code":"CZ","latitude":"49.59947000","longitude":"18.14480000"},{"id":22547,"name":"Kozlovice","state_id":4600,"state_code":"80","country_id":58,"country_code":"CZ","latitude":"49.59040000","longitude":"18.25656000"},{"id":22548,"name":"Kozmice","state_id":4600,"state_code":"80","country_id":58,"country_code":"CZ","latitude":"49.91280000","longitude":"18.15584000"},{"id":22557,"name":"Kravaře","state_id":4600,"state_code":"80","country_id":58,"country_code":"CZ","latitude":"49.93203000","longitude":"18.00472000"},{"id":22558,"name":"Krmelín","state_id":4600,"state_code":"80","country_id":58,"country_code":"CZ","latitude":"49.72914000","longitude":"18.23541000"},{"id":22559,"name":"Krnov","state_id":4600,"state_code":"80","country_id":58,"country_code":"CZ","latitude":"50.08967000","longitude":"17.70385000"},{"id":22572,"name":"Kunčice pod Ondřejníkem","state_id":4600,"state_code":"80","country_id":58,"country_code":"CZ","latitude":"49.55070000","longitude":"18.26113000"},{"id":22571,"name":"Kunín","state_id":4600,"state_code":"80","country_id":58,"country_code":"CZ","latitude":"49.63377000","longitude":"17.98965000"},{"id":22614,"name":"Lichnov","state_id":4600,"state_code":"80","country_id":58,"country_code":"CZ","latitude":"50.00786000","longitude":"17.62640000"},{"id":22615,"name":"Lichnov (o. Nový Jičín)","state_id":4600,"state_code":"80","country_id":58,"country_code":"CZ","latitude":"49.56423000","longitude":"18.16898000"},{"id":22653,"name":"Lučina","state_id":4600,"state_code":"80","country_id":58,"country_code":"CZ","latitude":"49.72082000","longitude":"18.44776000"},{"id":22645,"name":"Ludgeřovice","state_id":4600,"state_code":"80","country_id":58,"country_code":"CZ","latitude":"49.89042000","longitude":"18.24008000"},{"id":22677,"name":"Markvartovice","state_id":4600,"state_code":"80","country_id":58,"country_code":"CZ","latitude":"49.90595000","longitude":"18.23602000"},{"id":22741,"name":"Město Albrechtice","state_id":4600,"state_code":"80","country_id":58,"country_code":"CZ","latitude":"50.16294000","longitude":"17.57481000"},{"id":22682,"name":"Metylovice","state_id":4600,"state_code":"80","country_id":58,"country_code":"CZ","latitude":"49.60666000","longitude":"18.33911000"},{"id":22692,"name":"Milíkov","state_id":4600,"state_code":"80","country_id":58,"country_code":"CZ","latitude":"49.58565000","longitude":"18.71943000"},{"id":22713,"name":"Mokré Lazce","state_id":4600,"state_code":"80","country_id":58,"country_code":"CZ","latitude":"49.90462000","longitude":"18.02954000"},{"id":22724,"name":"Morávka","state_id":4600,"state_code":"80","country_id":58,"country_code":"CZ","latitude":"49.59607000","longitude":"18.52471000"},{"id":22730,"name":"Mořkov","state_id":4600,"state_code":"80","country_id":58,"country_code":"CZ","latitude":"49.53684000","longitude":"18.05968000"},{"id":22728,"name":"Mosty u Jablunkova","state_id":4600,"state_code":"80","country_id":58,"country_code":"CZ","latitude":"49.52737000","longitude":"18.75417000"},{"id":22796,"name":"Návsí u Jablunkova","state_id":4600,"state_code":"80","country_id":58,"country_code":"CZ","latitude":"49.58720000","longitude":"18.75907000"},{"id":22788,"name":"Nový Jičín","state_id":4600,"state_code":"80","country_id":58,"country_code":"CZ","latitude":"49.59438000","longitude":"18.01028000"},{"id":22797,"name":"Nýdek","state_id":4600,"state_code":"80","country_id":58,"country_code":"CZ","latitude":"49.65609000","longitude":"18.75687000"},{"id":22804,"name":"Odry","state_id":4600,"state_code":"80","country_id":58,"country_code":"CZ","latitude":"49.66255000","longitude":"17.83084000"},{"id":22810,"name":"Okres Bruntál","state_id":4600,"state_code":"80","country_id":58,"country_code":"CZ","latitude":"50.00000000","longitude":"17.41667000"},{"id":22817,"name":"Okres Frýdek-Místek","state_id":4600,"state_code":"80","country_id":58,"country_code":"CZ","latitude":"49.58333000","longitude":"18.50000000"},{"id":22827,"name":"Okres Karviná","state_id":4600,"state_code":"80","country_id":58,"country_code":"CZ","latitude":"49.83333000","longitude":"18.50000000"},{"id":22839,"name":"Okres Nový Jičín","state_id":4600,"state_code":"80","country_id":58,"country_code":"CZ","latitude":"49.66667000","longitude":"18.00000000"},{"id":22843,"name":"Okres Opava","state_id":4600,"state_code":"80","country_id":58,"country_code":"CZ","latitude":"49.83333000","longitude":"17.91667000"},{"id":22844,"name":"Okres Ostrava-město","state_id":4600,"state_code":"80","country_id":58,"country_code":"CZ","latitude":"49.83333000","longitude":"18.25000000"},{"id":22884,"name":"Oldřišov","state_id":4600,"state_code":"80","country_id":58,"country_code":"CZ","latitude":"49.99130000","longitude":"17.96074000"},{"id":22892,"name":"Opava","state_id":4600,"state_code":"80","country_id":58,"country_code":"CZ","latitude":"49.93866000","longitude":"17.90257000"},{"id":22895,"name":"Orlová","state_id":4600,"state_code":"80","country_id":58,"country_code":"CZ","latitude":"49.84527000","longitude":"18.43011000"},{"id":22902,"name":"Osoblaha","state_id":4600,"state_code":"80","country_id":58,"country_code":"CZ","latitude":"50.27517000","longitude":"17.71523000"},{"id":22904,"name":"Ostrava","state_id":4600,"state_code":"80","country_id":58,"country_code":"CZ","latitude":"49.83465000","longitude":"18.28204000"},{"id":22905,"name":"Ostravice","state_id":4600,"state_code":"80","country_id":58,"country_code":"CZ","latitude":"49.53510000","longitude":"18.39164000"},{"id":22913,"name":"Otice","state_id":4600,"state_code":"80","country_id":58,"country_code":"CZ","latitude":"49.91684000","longitude":"17.86982000"},{"id":22918,"name":"Palkovice","state_id":4600,"state_code":"80","country_id":58,"country_code":"CZ","latitude":"49.63467000","longitude":"18.31508000"},{"id":22921,"name":"Paskov","state_id":4600,"state_code":"80","country_id":58,"country_code":"CZ","latitude":"49.73179000","longitude":"18.29037000"},{"id":22930,"name":"Petrovice u Karviné","state_id":4600,"state_code":"80","country_id":58,"country_code":"CZ","latitude":"49.89587000","longitude":"18.54779000"},{"id":22931,"name":"Petřvald","state_id":4600,"state_code":"80","country_id":58,"country_code":"CZ","latitude":"49.83100000","longitude":"18.38940000"},{"id":22992,"name":"Písek","state_id":4600,"state_code":"80","country_id":58,"country_code":"CZ","latitude":"49.55924000","longitude":"18.80231000"},{"id":22995,"name":"Píšť","state_id":4600,"state_code":"80","country_id":58,"country_code":"CZ","latitude":"49.97857000","longitude":"18.19349000"},{"id":22975,"name":"Pražmo","state_id":4600,"state_code":"80","country_id":58,"country_code":"CZ","latitude":"49.60876000","longitude":"18.48617000"},{"id":23007,"name":"Příbor","state_id":4600,"state_code":"80","country_id":58,"country_code":"CZ","latitude":"49.64094000","longitude":"18.14499000"},{"id":22990,"name":"Pustá Polom","state_id":4600,"state_code":"80","country_id":58,"country_code":"CZ","latitude":"49.84917000","longitude":"17.99790000"},{"id":23026,"name":"Raškovice","state_id":4600,"state_code":"80","country_id":58,"country_code":"CZ","latitude":"49.61975000","longitude":"18.47286000"},{"id":23401,"name":"Řepiště","state_id":4600,"state_code":"80","country_id":58,"country_code":"CZ","latitude":"49.73338000","longitude":"18.31707000"},{"id":23033,"name":"Ropice","state_id":4600,"state_code":"80","country_id":58,"country_code":"CZ","latitude":"49.70536000","longitude":"18.61345000"},{"id":23052,"name":"Rybí","state_id":4600,"state_code":"80","country_id":58,"country_code":"CZ","latitude":"49.60073000","longitude":"18.07592000"},{"id":23054,"name":"Rychvald","state_id":4600,"state_code":"80","country_id":58,"country_code":"CZ","latitude":"49.86625000","longitude":"18.37626000"},{"id":23057,"name":"Rýmařov","state_id":4600,"state_code":"80","country_id":58,"country_code":"CZ","latitude":"49.93183000","longitude":"17.27177000"},{"id":23064,"name":"Sedliště","state_id":4600,"state_code":"80","country_id":58,"country_code":"CZ","latitude":"49.71836000","longitude":"18.36869000"},{"id":23065,"name":"Sedlnice","state_id":4600,"state_code":"80","country_id":58,"country_code":"CZ","latitude":"49.65770000","longitude":"18.08690000"},{"id":23412,"name":"Šenov","state_id":4600,"state_code":"80","country_id":58,"country_code":"CZ","latitude":"49.79315000","longitude":"18.37607000"},{"id":23415,"name":"Šilheřovice","state_id":4600,"state_code":"80","country_id":58,"country_code":"CZ","latitude":"49.92602000","longitude":"18.27017000"},{"id":23081,"name":"Slavkov","state_id":4600,"state_code":"80","country_id":58,"country_code":"CZ","latitude":"49.92180000","longitude":"17.83641000"},{"id":23102,"name":"Stará Ves nad Ondřejnicí","state_id":4600,"state_code":"80","country_id":58,"country_code":"CZ","latitude":"49.72775000","longitude":"18.18850000"},{"id":23105,"name":"Staré Město","state_id":4600,"state_code":"80","country_id":58,"country_code":"CZ","latitude":"49.66992000","longitude":"18.36349000"},{"id":23116,"name":"Staříč","state_id":4600,"state_code":"80","country_id":58,"country_code":"CZ","latitude":"49.68594000","longitude":"18.27281000"},{"id":23110,"name":"Starý Bohumín","state_id":4600,"state_code":"80","country_id":58,"country_code":"CZ","latitude":"49.91690000","longitude":"18.33619000"},{"id":23111,"name":"Starý Jičín","state_id":4600,"state_code":"80","country_id":58,"country_code":"CZ","latitude":"49.57686000","longitude":"17.96169000"},{"id":23135,"name":"Stěbořice","state_id":4600,"state_code":"80","country_id":58,"country_code":"CZ","latitude":"49.93708000","longitude":"17.80547000"},